orig_airport,dest_airport,total_passengers,orig_lon,orig_lat,dest_lon,dest_lat,orig_state,dest_state,orig_city,dest_city
MHK,AMW,21,-96.6707992553711,39.14099884033203,-93.621803,41.992001,KS,IA,Manhattan,Ames
SEA,RDM,61274,-122.308998,47.449001,-121.1500015,44.2541008,WA,OR,Seattle,Bend
GEG,RDM,13,-117.53399658203124,47.61989974975586,-121.1500015,44.2541008,WA,OR,Spokane,Bend
AZA,RDM,2538,-111.6549988,33.30780029,-121.1500015,44.2541008,AZ,OR,Phoenix,Bend
BIL,RDM,100,-108.54299926757812,45.807701110839844,-121.1500015,44.2541008,MT,OR,Billings,Bend
MFR,RDM,64,-122.8730010986328,42.37419891357422,-121.1500015,44.2541008,OR,OR,Medford,Bend
EUG,RDM,5093,-123.21199798583984,44.12459945678711,-121.1500015,44.2541008,OR,OR,Eugene,Bend
DLH,RDM,100,-92.19360351559999,46.8420982361,-121.1500015,44.2541008,MN,OR,Duluth,Bend
RNO,RDM,70,-119.76799774169922,39.49909973144531,-121.1500015,44.2541008,NV,OR,Reno,Bend
SLE,RDM,87,-123.00299840000002,44.90950012,-121.1500015,44.2541008,OR,OR,Salem,Bend
SLC,RDM,27489,-111.97799682617188,40.78839874267578,-121.1500015,44.2541008,UT,OR,Salt Lake City,Bend
LMT,RDM,16,-121.733002,42.156101,-121.1500015,44.2541008,OR,OR,Klamath Falls,Bend
SFO,RDM,22372,-122.375,37.61899948120117,-121.1500015,44.2541008,CA,OR,San Francisco,Bend
OKC,RDM,100,-97.60070037841795,35.39310073852539,-121.1500015,44.2541008,OK,OR,Oklahoma City,Bend
SAN,RDM,140,-117.190002441,32.7336006165,-121.1500015,44.2541008,CA,OR,San Diego,Bend
LAS,RDM,13510,-115.1520004,36.08010101,-121.1500015,44.2541008,NV,OR,Las Vegas,Bend
FSM,RDM,200,-94.36740112304688,35.33660125732422,-121.1500015,44.2541008,AR,OR,Fort Smith,Bend
PDX,RDM,83517,-122.5979996,45.58869934,-121.1500015,44.2541008,OR,OR,Portland,Bend
STS,RDM,73,-122.8130035,38.50899887,-121.1500015,44.2541008,CA,OR,Santa Rosa,Bend
ABQ,RDM,99,-106.609001,35.040199,-121.1500015,44.2541008,NM,OR,Albuquerque,Bend
LAX,RDM,23486,-118.407997,33.942501,-121.1500015,44.2541008,CA,OR,Los Angeles,Bend
LAS,EKO,202,-115.1520004,36.08010101,-115.79199981689452,40.82490158081055,NV,NV,Las Vegas,Elko
OAK,EKO,161,-122.221001,37.721298,-115.79199981689452,40.82490158081055,CA,NV,Oakland,Elko
RNO,EKO,45,-119.76799774169922,39.49909973144531,-115.79199981689452,40.82490158081055,NV,NV,Reno,Elko
SLC,EKO,24590,-111.97799682617188,40.78839874267578,-115.79199981689452,40.82490158081055,UT,NV,Salt Lake City,Elko
PHL,ERI,33384,-75.24109649658203,39.87189865112305,-80.1738667488,42.0831270134,PA,PA,Philadelphia,Erie
ACY,ERI,612,-74.57720184326172,39.45759963989258,-80.1738667488,42.0831270134,NJ,PA,Atlantic City,Erie
CLE,ERI,27869,-81.8498001099,41.411701202399996,-80.1738667488,42.0831270134,OH,PA,Cleveland,Erie
JFK,ERI,45,-73.7789,40.639801,-80.1738667488,42.0831270134,NY,PA,New York,Erie
ABE,ERI,33,-75.44080352783203,40.652099609375,-80.1738667488,42.0831270134,PA,PA,Allentown,Erie
AVP,ERI,46,-75.72339630130001,41.338500976599995,-80.1738667488,42.0831270134,PA,PA,Scranton,Erie
PIT,ERI,594,-80.23290253,40.49150085,-80.1738667488,42.0831270134,PA,PA,Pittsburgh,Erie
PVD,ERI,50,-71.42040300000002,41.732601,-80.1738667488,42.0831270134,RI,PA,Providence,Erie
GSO,ERI,46,-79.93730163574219,36.097801208496094,-80.1738667488,42.0831270134,NC,PA,Greensboro,Erie
PGV,ERI,56,-77.38529968,35.6352005,-80.1738667488,42.0831270134,NC,PA,Greenville,Erie
LAS,ERI,40,-115.1520004,36.08010101,-80.1738667488,42.0831270134,NV,PA,Las Vegas,Erie
BUF,ERI,38,-78.73220062,42.94049835,-80.1738667488,42.0831270134,NY,PA,Buffalo,Erie
DTW,ERI,58085,-83.35340118408203,42.212398529052734,-80.1738667488,42.0831270134,MI,PA,Detroit,Erie
GPT,GYY,60,-89.07009887695312,30.40730094909668,-87.41280364990234,41.61629867553711,MS,IN,Gulfport,Gary
SBN,GYY,1,-86.31729888916016,41.70869827270508,-87.41280364990234,41.61629867553711,IN,IN,South Bend,Gary
BMG,GYY,47,-86.61669921875,39.14599990844727,-87.41280364990234,41.61629867553711,IN,IN,Bloomington,Gary
RNO,GYY,393,-119.76799774169922,39.49909973144531,-87.41280364990234,41.61629867553711,NV,IN,Reno,Gary
GSO,GYY,54,-79.93730163574219,36.097801208496094,-87.41280364990234,41.61629867553711,NC,IN,Greensboro,Gary
SNA,GYY,135,-117.8679962,33.67570114,-87.41280364990234,41.61629867553711,CA,IN,Santa Ana,Gary
MDW,GYY,6,-87.752403,41.785999,-87.41280364990234,41.61629867553711,IL,IN,Chicago,Gary
ACY,GYY,428,-74.57720184326172,39.45759963989258,-87.41280364990234,41.61629867553711,NJ,IN,Atlantic City,Gary
IND,GYY,117,-86.294403,39.7173,-87.41280364990234,41.61629867553711,IN,IN,Indianapolis,Gary
LBL,HYS,4,-100.9599991,37.04420089999999,-99.27320099,38.84220123,KS,KS,Liberal,Hays
GBD,HYS,590,-98.85919952389999,38.3442993164,-99.27320099,38.84220123,KS,KS,Great Bend,Hays
DDC,HYS,23,-99.9655990600586,37.76340103149414,-99.27320099,38.84220123,KS,KS,Dodge City,Hays
BRL,HYS,3,-91.12550354003906,40.783199310302734,-99.27320099,38.84220123,IA,KS,Burlington,Hays
MHK,HYS,8,-96.6707992553711,39.14099884033203,-99.27320099,38.84220123,KS,KS,Manhattan,Hays
MCI,HYS,2441,-94.713898,39.2976,-99.27320099,38.84220123,MO,KS,Kansas City,Hays
GCK,HYS,22,-100.72399902299999,37.9275016785,-99.27320099,38.84220123,KS,KS,Garden City,Hays
OGG,ITO,49682,-156.429993,20.8986,-155.04800415039062,19.721399307250977,HI,HI,Kahului,Hilo
OAK,ITO,7898,-122.221001,37.721298,-155.04800415039062,19.721399307250977,CA,HI,Oakland,Hilo
HNL,ITO,602940,-157.924228,21.32062,-155.04800415039062,19.721399307250977,HI,HI,Honolulu,Hilo
RST,APC,2,-92.5,43.90829849243164,-122.280998,38.2132,MN,CA,Rochester,Napa
SUS,GUS,14,-90.652000427246,38.662101745605,-86.15209960940003,40.648101806599996,MO,IN,St. Louis,Peru
PDX,RNO,103608,-122.5979996,45.58869934,-119.76799774169922,39.49909973144531,OR,NV,Portland,Reno
SJC,RNO,118019,-121.929001,37.362598,-119.76799774169922,39.49909973144531,CA,NV,San Jose,Reno
RFD,RNO,258,-89.09719848632812,42.19540023803711,-119.76799774169922,39.49909973144531,IL,NV,Rockford,Reno
JFK,RNO,86,-73.7789,40.639801,-119.76799774169922,39.49909973144531,NY,NV,New York,Reno
GRB,RNO,130,-88.12960052490234,44.48509979248047,-119.76799774169922,39.49909973144531,WI,NV,Green Bay,Reno
CLE,RNO,249,-81.8498001099,41.411701202399996,-119.76799774169922,39.49909973144531,OH,NV,Cleveland,Reno
CMI,RNO,94,-88.27809906,40.03919983,-119.76799774169922,39.49909973144531,IL,NV,Champaign,Reno
ANC,RNO,91,-149.99600219726562,61.174400329589844,-119.76799774169922,39.49909973144531,AK,NV,Anchorage,Reno
BWI,RNO,118,-76.668297,39.1754,-119.76799774169922,39.49909973144531,MD,NV,Baltimore,Reno
HNL,RNO,485,-157.924228,21.32062,-119.76799774169922,39.49909973144531,HI,NV,Honolulu,Reno
SEA,RNO,155671,-122.308998,47.449001,-119.76799774169922,39.49909973144531,WA,NV,Seattle,Reno
PHX,RNO,222973,-112.01200103759766,33.43429946899414,-119.76799774169922,39.49909973144531,AZ,NV,Phoenix,Reno
ICT,RNO,517,-97.433098,37.649899,-119.76799774169922,39.49909973144531,KS,NV,Wichita,Reno
PUW,RNO,113,-117.110001,46.7439,-119.76799774169922,39.49909973144531,WA,NV,Pullman,Reno
GEG,RNO,6828,-117.53399658203124,47.61989974975586,-119.76799774169922,39.49909973144531,WA,NV,Spokane,Reno
AZA,RNO,487,-111.6549988,33.30780029,-119.76799774169922,39.49909973144531,AZ,NV,Phoenix,Reno
OAK,RNO,95230,-122.221001,37.721298,-119.76799774169922,39.49909973144531,CA,NV,Oakland,Reno
IAH,RNO,49654,-95.34140014648438,29.98439979553223,-119.76799774169922,39.49909973144531,TX,NV,Houston,Reno
MEM,RNO,276,-89.97669982910156,35.04240036010742,-119.76799774169922,39.49909973144531,TN,NV,Memphis,Reno
MOD,RNO,13,-120.9540024,37.62580109,-119.76799774169922,39.49909973144531,CA,NV,Modesto,Reno
LBB,RNO,408,-101.822998,33.663601,-119.76799774169922,39.49909973144531,TX,NV,Lubbock,Reno
OGG,RNO,124,-156.429993,20.8986,-119.76799774169922,39.49909973144531,HI,NV,Kahului,Reno
JAN,RNO,227,-90.0758972168,32.3111991882,-119.76799774169922,39.49909973144531,MS,NV,Jackson,Reno
MSN,RNO,91,-89.3375015258789,43.13990020751953,-119.76799774169922,39.49909973144531,WI,NV,Madison,Reno
LNK,RNO,124,-96.75920104980469,40.85100173950195,-119.76799774169922,39.49909973144531,NE,NV,Lincoln,Reno
GRK,RNO,206,-97.8289031982,31.067199706999997,-119.76799774169922,39.49909973144531,TX,NV,Killeen,Reno
MOB,RNO,115,-88.242797851562,30.691200256348,-119.76799774169922,39.49909973144531,AL,NV,Mobile,Reno
MLU,RNO,253,-92.0376968383789,32.51089859008789,-119.76799774169922,39.49909973144531,LA,NV,Monroe,Reno
DFW,RNO,134385,-97.038002,32.896801,-119.76799774169922,39.49909973144531,TX,NV,Dallas,Reno
DAL,RNO,256,-96.851799,32.847099,-119.76799774169922,39.49909973144531,TX,NV,Dallas,Reno
FAT,RNO,626,-119.718002,36.776199,-119.76799774169922,39.49909973144531,CA,NV,Fresno,Reno
DAY,RNO,70,-84.21939849853516,39.90240097045898,-119.76799774169922,39.49909973144531,OH,NV,Dayton,Reno
BOS,RNO,188,-71.00520325,42.36429977,-119.76799774169922,39.49909973144531,MA,NV,Boston,Reno
TUL,RNO,461,-95.88809967041016,36.19839859008789,-119.76799774169922,39.49909973144531,OK,NV,Tulsa,Reno
AUS,RNO,862,-97.6698989868164,30.194499969482425,-119.76799774169922,39.49909973144531,TX,NV,Austin,Reno
OMA,RNO,333,-95.894096,41.3032,-119.76799774169922,39.49909973144531,NE,NV,Omaha,Reno
ACT,RNO,122,-97.23049926757812,31.61129951477051,-119.76799774169922,39.49909973144531,TX,NV,Waco,Reno
EKO,RNO,84,-115.79199981689452,40.82490158081055,-119.76799774169922,39.49909973144531,NV,NV,Elko,Reno
GYY,RNO,121,-87.41280364990234,41.61629867553711,-119.76799774169922,39.49909973144531,IN,NV,Gary,Reno
RDM,RNO,206,-121.1500015,44.2541008,-119.76799774169922,39.49909973144531,OR,NV,Bend,Reno
LGU,RNO,113,-111.851997375,41.7911987305,-119.76799774169922,39.49909973144531,UT,NV,Logan,Reno
TUS,RNO,6326,-110.94100189208984,32.116100311279304,-119.76799774169922,39.49909973144531,AZ,NV,Tucson,Reno
CWA,RNO,267,-89.6668014526,44.7775993347,-119.76799774169922,39.49909973144531,WI,NV,Wausau,Reno
PIA,RNO,127,-89.6932983398,40.664199829100006,-119.76799774169922,39.49909973144531,IL,NV,Peoria,Reno
TOL,RNO,91,-83.80780029,41.58679962,-119.76799774169922,39.49909973144531,OH,NV,Toledo,Reno
FOE,RNO,119,-95.6635971069,38.9509010315,-119.76799774169922,39.49909973144531,KS,NV,Topeka,Reno
SFO,RNO,98044,-122.375,37.61899948120117,-119.76799774169922,39.49909973144531,CA,NV,San Francisco,Reno
SPS,RNO,378,-98.491898,33.9888,-119.76799774169922,39.49909973144531,TX,NV,Wichita Falls,Reno
OKC,RNO,512,-97.60070037841795,35.39310073852539,-119.76799774169922,39.49909973144531,OK,NV,Oklahoma City,Reno
LCH,RNO,213,-93.22329711914062,30.12610054016113,-119.76799774169922,39.49909973144531,LA,NV,Lake Charles,Reno
IND,RNO,103,-86.294403,39.7173,-119.76799774169922,39.49909973144531,IN,NV,Indianapolis,Reno
CRP,RNO,268,-97.5011978149414,27.77039909362793,-119.76799774169922,39.49909973144531,TX,NV,Corpus Christi,Reno
SLC,RNO,123072,-111.97799682617188,40.78839874267578,-119.76799774169922,39.49909973144531,UT,NV,Salt Lake City,Reno
COS,RNO,128,-104.700996,38.805801,-119.76799774169922,39.49909973144531,CO,NV,Colorado Springs,Reno
SPI,RNO,384,-89.67790222,39.84410095,-119.76799774169922,39.49909973144531,IL,NV,Springfield,Reno
LAX,RNO,186723,-118.407997,33.942501,-119.76799774169922,39.49909973144531,CA,NV,Los Angeles,Reno
SAT,RNO,516,-98.469803,29.533701,-119.76799774169922,39.49909973144531,TX,NV,San Antonio,Reno
SGF,RNO,261,-93.38860321,37.24570084,-119.76799774169922,39.49909973144531,MO,NV,Springfield,Reno
MSY,RNO,221,-90.25800323486328,29.99340057373047,-119.76799774169922,39.49909973144531,LA,NV,New Orleans,Reno
MSP,RNO,123,-93.221802,44.882,-119.76799774169922,39.49909973144531,MN,NV,Minneapolis,Reno
XNA,RNO,86,-94.306801,36.281898,-119.76799774169922,39.49909973144531,AR,NV,Fayetteville,Reno
GRR,RNO,136,-85.52279663,42.88079834,-119.76799774169922,39.49909973144531,MI,NV,Grand Rapids,Reno
SJT,RNO,274,-100.49600219726562,31.35770034790039,-119.76799774169922,39.49909973144531,TX,NV,San Angelo,Reno
SMF,RNO,1070,-121.59100341796876,38.69540023803711,-119.76799774169922,39.49909973144531,CA,NV,Sacramento,Reno
ABQ,RNO,596,-106.609001,35.040199,-119.76799774169922,39.49909973144531,NM,NV,Albuquerque,Reno
LIT,RNO,225,-92.22429656979999,34.729400634799994,-119.76799774169922,39.49909973144531,AR,NV,Little Rock,Reno
BFL,RNO,335,-119.0569992,35.43360138,-119.76799774169922,39.49909973144531,CA,NV,Bakersfield,Reno
GCK,RNO,275,-100.72399902299999,37.9275016785,-119.76799774169922,39.49909973144531,KS,NV,Garden City,Reno
MCI,RNO,314,-94.713898,39.2976,-119.76799774169922,39.49909973144531,MO,NV,Kansas City,Reno
BTR,RNO,233,-91.149597,30.533199,-119.76799774169922,39.49909973144531,LA,NV,Baton Rouge,Reno
SHV,RNO,684,-93.8256,32.446602,-119.76799774169922,39.49909973144531,LA,NV,Shreveport,Reno
CHA,RNO,107,-85.20379638671875,35.03530120849609,-119.76799774169922,39.49909973144531,TN,NV,Chattanooga,Reno
MDW,RNO,42455,-87.752403,41.785999,-119.76799774169922,39.49909973144531,IL,NV,Chicago,Reno
ORD,RNO,55080,-87.9048,41.9786,-119.76799774169922,39.49909973144531,IL,NV,Chicago,Reno
ELP,RNO,216,-106.37799840000002,31.80719948,-119.76799774169922,39.49909973144531,TX,NV,El Paso,Reno
ATL,RNO,25680,-84.428101,33.6367,-119.76799774169922,39.49909973144531,GA,NV,Atlanta,Reno
ABI,RNO,252,-99.68190002440001,32.4113006592,-119.76799774169922,39.49909973144531,TX,NV,Abilene,Reno
FWA,RNO,128,-85.19509888,40.97850037,-119.76799774169922,39.49909973144531,IN,NV,Fort Wayne,Reno
BLI,RNO,15555,-122.53800201416016,48.79280090332031,-119.76799774169922,39.49909973144531,WA,NV,Bellingham,Reno
CVG,RNO,318,-84.6678009033,39.0488014221,-119.76799774169922,39.49909973144531,OH,NV,Cincinnati,Reno
STL,RNO,383,-90.370003,38.748697,-119.76799774169922,39.49909973144531,MO,NV,St. Louis,Reno
EVV,RNO,100,-87.53240203860001,38.0369987488,-119.76799774169922,39.49909973144531,IN,NV,Evansville,Reno
DSM,RNO,273,-93.66310119628906,41.53400039672852,-119.76799774169922,39.49909973144531,IA,NV,Des Moines,Reno
BHM,RNO,121,-86.75350189,33.56290054,-119.76799774169922,39.49909973144531,AL,NV,Birmingham,Reno
LRU,RNO,118,-106.9219970703125,32.28939819335937,-119.76799774169922,39.49909973144531,NM,NV,Las Cruces,Reno
LAS,RNO,446252,-115.1520004,36.08010101,-119.76799774169922,39.49909973144531,NV,NV,Las Vegas,Reno
BNA,RNO,214,-86.6781997680664,36.1245002746582,-119.76799774169922,39.49909973144531,TN,NV,Nashville,Reno
MKE,RNO,239,-87.89659881591797,42.94720077514648,-119.76799774169922,39.49909973144531,WI,NV,Milwaukee,Reno
SNA,RNO,6798,-117.8679962,33.67570114,-119.76799774169922,39.49909973144531,CA,NV,Santa Ana,Reno
SAN,RNO,74711,-117.190002441,32.7336006165,-119.76799774169922,39.49909973144531,CA,NV,San Diego,Reno
SWO,ACT,271,-97.08570098877001,36.161201477051,-97.23049926757812,31.61129951477051,OK,TX,Stillwater,Waco
CHA,ACT,23,-85.20379638671875,35.03530120849609,-97.23049926757812,31.61129951477051,TN,TX,Chattanooga,Waco
MCI,ACT,74,-94.713898,39.2976,-97.23049926757812,31.61129951477051,MO,TX,Kansas City,Waco
ILG,ACT,82,-75.60649872,39.67869949,-97.23049926757812,31.61129951477051,DE,TX,Wilmington,Waco
ABQ,ACT,82,-106.609001,35.040199,-97.23049926757812,31.61129951477051,NM,TX,Albuquerque,Waco
BTR,ACT,106,-91.149597,30.533199,-97.23049926757812,31.61129951477051,LA,TX,Baton Rouge,Waco
IAD,ACT,131,-77.45580292,38.94449997,-97.23049926757812,31.61129951477051,DC,TX,Washington,Waco
SLC,ACT,35,-111.97799682617188,40.78839874267578,-97.23049926757812,31.61129951477051,UT,TX,Salt Lake City,Waco
CLL,ACT,28,-96.36380005,30.58860016,-97.23049926757812,31.61129951477051,TX,TX,College Station,Waco
OKC,ACT,204,-97.60070037841795,35.39310073852539,-97.23049926757812,31.61129951477051,OK,TX,Oklahoma City,Waco
DSM,ACT,151,-93.66310119628906,41.53400039672852,-97.23049926757812,31.61129951477051,IA,TX,Des Moines,Waco
GSO,ACT,133,-79.93730163574219,36.097801208496094,-97.23049926757812,31.61129951477051,NC,TX,Greensboro,Waco
HSV,ACT,39,-86.775100708008,34.637199401855,-97.23049926757812,31.61129951477051,AL,TX,Huntsville,Waco
BHM,ACT,50,-86.75350189,33.56290054,-97.23049926757812,31.61129951477051,AL,TX,Birmingham,Waco
GSP,ACT,5,-82.2189025879,34.895698547399995,-97.23049926757812,31.61129951477051,SC,TX,Greenville,Waco
AEX,ACT,29,-92.54979705810548,31.32740020751953,-97.23049926757812,31.61129951477051,LA,TX,Alexandria,Waco
STL,ACT,33,-90.370003,38.748697,-97.23049926757812,31.61129951477051,MO,TX,St. Louis,Waco
CVG,ACT,34,-84.6678009033,39.0488014221,-97.23049926757812,31.61129951477051,OH,TX,Cincinnati,Waco
MHK,ACT,63,-96.6707992553711,39.14099884033203,-97.23049926757812,31.61129951477051,KS,TX,Manhattan,Waco
PNS,ACT,43,-87.1866,30.4734,-97.23049926757812,31.61129951477051,FL,TX,Pensacola,Waco
LAS,ACT,104,-115.1520004,36.08010101,-97.23049926757812,31.61129951477051,NV,TX,Las Vegas,Waco
ABI,ACT,24,-99.68190002440001,32.4113006592,-97.23049926757812,31.61129951477051,TX,TX,Abilene,Waco
HOU,ACT,34,-95.27890015,29.64539909,-97.23049926757812,31.61129951477051,TX,TX,Houston,Waco
IAH,ACT,17333,-95.34140014648438,29.98439979553223,-97.23049926757812,31.61129951477051,TX,TX,Houston,Waco
DMA,ACT,30,-110.883003235,32.1665000916,-97.23049926757812,31.61129951477051,AZ,TX,Tucson,Waco
FOE,ACT,35,-95.6635971069,38.9509010315,-97.23049926757812,31.61129951477051,KS,TX,Topeka,Waco
DFW,ACT,45661,-97.038002,32.896801,-97.23049926757812,31.61129951477051,TX,TX,Dallas,Waco
MLU,ACT,59,-92.0376968383789,32.51089859008789,-97.23049926757812,31.61129951477051,LA,TX,Monroe,Waco
FTW,ACT,3,-97.362396,32.819801,-97.23049926757812,31.61129951477051,TX,TX,Dallas,Waco
TYR,ACT,29,-95.40239715576172,32.35409927368164,-97.23049926757812,31.61129951477051,TX,TX,Tyler,Waco
AUS,ACT,135,-97.6698989868164,30.194499969482425,-97.23049926757812,31.61129951477051,TX,TX,Austin,Waco
RNO,ACT,122,-119.76799774169922,39.49909973144531,-97.23049926757812,31.61129951477051,NV,TX,Reno,Waco
TUL,ACT,100,-95.88809967041016,36.19839859008789,-97.23049926757812,31.61129951477051,OK,TX,Tulsa,Waco
COU,ACT,160,-92.219597,38.8181,-97.23049926757812,31.61129951477051,MO,TX,Columbia,Waco
PUW,ACT,119,-117.110001,46.7439,-97.23049926757812,31.61129951477051,WA,TX,Pullman,Waco
BDL,ACT,161,-72.68319702149999,41.9388999939,-97.23049926757812,31.61129951477051,CT,TX,Hartford,Waco
GPT,ACT,37,-89.07009887695312,30.40730094909668,-97.23049926757812,31.61129951477051,MS,TX,Gulfport,Waco
LBB,ACT,286,-101.822998,33.663601,-97.23049926757812,31.61129951477051,TX,TX,Lubbock,Waco
JAN,ACT,79,-90.0758972168,32.3111991882,-97.23049926757812,31.61129951477051,MS,TX,Jackson,Waco
MCO,ACT,50,-81.30899810791016,28.429399490356445,-97.23049926757812,31.61129951477051,FL,TX,Orlando,Waco
LNK,ACT,160,-96.75920104980469,40.85100173950195,-97.23049926757812,31.61129951477051,NE,TX,Lincoln,Waco
SFB,ACT,172,-81.23750305175781,28.7775993347168,-97.23049926757812,31.61129951477051,FL,TX,Orlando,Waco
MEM,ACT,50,-89.97669982910156,35.04240036010742,-97.23049926757812,31.61129951477051,TN,TX,Memphis,Waco
LFT,ACT,39,-91.98760223,30.20529938,-97.23049926757812,31.61129951477051,LA,TX,Lafayette,Waco
CLE,ACT,98,-81.8498001099,41.411701202399996,-97.23049926757812,31.61129951477051,OH,TX,Cleveland,Waco
SAV,ACT,43,-81.20210266,32.12760162,-97.23049926757812,31.61129951477051,GA,TX,Savannah,Waco
BGR,THV,4,-68.82810211181639,44.80739974975586,-76.8730011,39.91699982,ME,PA,Bangor,York
LAS,YUM,1539,-115.1520004,36.08010101,-114.6060028,32.65660095,NV,AZ,Las Vegas,Yuma
SNA,YUM,53,-117.8679962,33.67570114,-114.6060028,32.65660095,CA,AZ,Santa Ana,Yuma
FLG,YUM,38,-111.6709976,35.13850021,-114.6060028,32.65660095,AZ,AZ,Flagstaff,Yuma
IPL,YUM,3110,-115.57900238,32.834201812699995,-114.6060028,32.65660095,CA,AZ,El Centro,Yuma
PHX,YUM,49463,-112.01200103759766,33.43429946899414,-114.6060028,32.65660095,AZ,AZ,Phoenix,Yuma
LAX,YUM,16132,-118.407997,33.942501,-114.6060028,32.65660095,CA,AZ,Los Angeles,Yuma
BFL,YUM,18,-119.0569992,35.43360138,-114.6060028,32.65660095,CA,AZ,Bakersfield,Yuma
OKC,YUM,427,-97.60070037841795,35.39310073852539,-114.6060028,32.65660095,OK,AZ,Oklahoma City,Yuma
SBA,YUM,21,-119.8399963,34.42620087,-114.6060028,32.65660095,CA,AZ,Santa Barbara,Yuma
SLC,YUM,15290,-111.97799682617188,40.78839874267578,-114.6060028,32.65660095,UT,AZ,Salt Lake City,Yuma
SBP,YUM,56,-120.64199829100001,35.2368011475,-114.6060028,32.65660095,CA,AZ,San Luis Obispo,Yuma
FAT,YUM,69,-119.718002,36.776199,-114.6060028,32.65660095,CA,AZ,Fresno,Yuma
DCA,CAK,347,-77.037697,38.8521,-81.44219970703125,40.916099548339844,DC,OH,Washington,Akron
MCI,CAK,69,-94.713898,39.2976,-81.44219970703125,40.916099548339844,MO,OH,Kansas City,Akron
MSP,CAK,128,-93.221802,44.882,-81.44219970703125,40.916099548339844,MN,OH,Minneapolis,Akron
XNA,CAK,44,-94.306801,36.281898,-81.44219970703125,40.916099548339844,AR,OH,Fayetteville,Akron
TOL,CAK,45,-83.80780029,41.58679962,-81.44219970703125,40.916099548339844,OH,OH,Toledo,Akron
BOS,CAK,39732,-71.00520325,42.36429977,-81.44219970703125,40.916099548339844,MA,OH,Boston,Akron
DAY,CAK,34,-84.21939849853516,39.90240097045898,-81.44219970703125,40.916099548339844,OH,OH,Dayton,Akron
TPA,CAK,36360,-82.533203125,27.975500106811523,-81.44219970703125,40.916099548339844,FL,OH,Tampa,Akron
OMA,CAK,85,-95.894096,41.3032,-81.44219970703125,40.916099548339844,NE,OH,Omaha,Akron
ATL,CAK,259151,-84.428101,33.6367,-81.44219970703125,40.916099548339844,GA,OH,Atlanta,Akron
DTW,CAK,45917,-83.35340118408203,42.212398529052734,-81.44219970703125,40.916099548339844,MI,OH,Detroit,Akron
ORD,CAK,37025,-87.9048,41.9786,-81.44219970703125,40.916099548339844,IL,OH,Chicago,Akron
MDW,CAK,169,-87.752403,41.785999,-81.44219970703125,40.916099548339844,IL,OH,Chicago,Akron
CLT,CAK,71162,-80.94309997558594,35.2140007019043,-81.44219970703125,40.916099548339844,NC,OH,Charlotte,Akron
AVL,CAK,36,-82.54180145263672,35.43619918823242,-81.44219970703125,40.916099548339844,NC,OH,Asheville,Akron
LGA,CAK,66047,-73.87259674,40.77719879,-81.44219970703125,40.916099548339844,NY,OH,New York,Akron
RFD,CAK,121,-89.09719848632812,42.19540023803711,-81.44219970703125,40.916099548339844,IL,OH,Rockford,Akron
AVP,CAK,47,-75.72339630130001,41.338500976599995,-81.44219970703125,40.916099548339844,PA,OH,Scranton,Akron
SYR,CAK,172,-76.1063003540039,43.11119842529297,-81.44219970703125,40.916099548339844,NY,OH,Syracuse,Akron
LAS,CAK,4045,-115.1520004,36.08010101,-81.44219970703125,40.916099548339844,NV,OH,Las Vegas,Akron
PIT,CAK,34,-80.23290253,40.49150085,-81.44219970703125,40.916099548339844,PA,OH,Pittsburgh,Akron
PVD,CAK,45,-71.42040300000002,41.732601,-81.44219970703125,40.916099548339844,RI,OH,Providence,Akron
CVG,CAK,13290,-84.6678009033,39.0488014221,-81.44219970703125,40.916099548339844,OH,OH,Cincinnati,Akron
MHT,CAK,84,-71.435699,42.932598,-81.44219970703125,40.916099548339844,NH,OH,Manchester,Akron
FLL,CAK,606,-80.152702,26.072599,-81.44219970703125,40.916099548339844,FL,OH,Fort Lauderdale,Akron
PHL,CAK,15922,-75.24109649658203,39.87189865112305,-81.44219970703125,40.916099548339844,PA,OH,Philadelphia,Akron
ACY,CAK,2009,-74.57720184326172,39.45759963989258,-81.44219970703125,40.916099548339844,NJ,OH,Atlantic City,Akron
MCO,CAK,37517,-81.30899810791016,28.429399490356445,-81.44219970703125,40.916099548339844,FL,OH,Orlando,Akron
CMH,CAK,44,-82.891899,39.998001,-81.44219970703125,40.916099548339844,OH,OH,Columbus,Akron
BDL,CAK,47,-72.68319702149999,41.9388999939,-81.44219970703125,40.916099548339844,CT,OH,Hartford,Akron
GPT,CAK,114,-89.07009887695312,30.40730094909668,-81.44219970703125,40.916099548339844,MS,OH,Gulfport,Akron
PHX,CAK,1,-112.01200103759766,33.43429946899414,-81.44219970703125,40.916099548339844,AZ,OH,Phoenix,Akron
SEA,BTM,12647,-122.308998,47.449001,-112.49700164794922,45.95479965209961,WA,MT,Seattle,Butte
MSO,BTM,50,-114.0910034,46.91630173,-112.49700164794922,45.95479965209961,MT,MT,Missoula,Butte
BZN,BTM,2453,-111.1529999,45.77750015,-112.49700164794922,45.95479965209961,MT,MT,Bozeman,Butte
HLN,BTM,31,-111.98300170898438,46.6068000793457,-112.49700164794922,45.95479965209961,MT,MT,Helena,Butte
EUG,BTM,42,-123.21199798583984,44.12459945678711,-112.49700164794922,45.95479965209961,OR,MT,Eugene,Butte
FAR,BTM,51,-96.81580352783205,46.92070007324219,-112.49700164794922,45.95479965209961,ND,MT,Fargo,Butte
SLC,BTM,21212,-111.97799682617188,40.78839874267578,-112.49700164794922,45.95479965209961,UT,MT,Salt Lake City,Butte
IDA,BTM,39,-112.070999,43.514599,-112.49700164794922,45.95479965209961,ID,MT,Idaho Falls,Butte
SFO,CIC,24965,-122.375,37.61899948120117,-121.8580017,39.79539871,CA,CA,San Francisco,Chico
CAE,DOV,130,-81.11949920654297,33.93880081176758,-75.46600342,39.12950134,SC,DE,Columbia,Dover
AVP,DOV,34,-75.72339630130001,41.338500976599995,-75.46600342,39.12950134,PA,DE,Scranton,Dover
CLT,DOV,99,-80.94309997558594,35.2140007019043,-75.46600342,39.12950134,NC,DE,Charlotte,Dover
PHL,FAR,189,-75.24109649658203,39.87189865112305,-96.81580352783205,46.92070007324219,PA,ND,Philadelphia,Fargo
SLC,FAR,2677,-111.97799682617188,40.78839874267578,-96.81580352783205,46.92070007324219,UT,ND,Salt Lake City,Fargo
COS,FAR,414,-104.700996,38.805801,-96.81580352783205,46.92070007324219,CO,ND,Colorado Springs,Fargo
FCA,FAR,31,-114.25599670410156,48.31050109863281,-96.81580352783205,46.92070007324219,MT,ND,Kalispell,Fargo
SJC,FAR,114,-121.929001,37.362598,-96.81580352783205,46.92070007324219,CA,ND,San Jose,Fargo
ALO,FAR,110,-92.40029907226562,42.55709838867188,-96.81580352783205,46.92070007324219,IA,ND,Waterloo,Fargo
ANC,FAR,179,-149.99600219726562,61.174400329589844,-96.81580352783205,46.92070007324219,AK,ND,Anchorage,Fargo
BWI,FAR,72,-76.668297,39.1754,-96.81580352783205,46.92070007324219,MD,ND,Baltimore,Fargo
CID,FAR,34,-91.71080017089844,41.88470077514648,-96.81580352783205,46.92070007324219,IA,ND,Cedar Rapids,Fargo
HUF,FAR,87,-87.307602,39.4515,-96.81580352783205,46.92070007324219,IN,ND,Terre Haute,Fargo
YNG,FAR,109,-80.67910004,41.26070023,-96.81580352783205,46.92070007324219,OH,ND,Youngstown,Fargo
BMI,FAR,109,-88.91590118,40.47710037,-96.81580352783205,46.92070007324219,IL,ND,Bloomington,Fargo
IAD,FAR,148,-77.45580292,38.94449997,-96.81580352783205,46.92070007324219,DC,ND,Washington,Fargo
GFK,FAR,74,-97.176102,47.949299,-96.81580352783205,46.92070007324219,ND,ND,Grand Forks,Fargo
MSP,FAR,164403,-93.221802,44.882,-96.81580352783205,46.92070007324219,MN,ND,Minneapolis,Fargo
FSD,FAR,56,-96.741897583,43.5820007324,-96.81580352783205,46.92070007324219,SD,ND,Sioux Falls,Fargo
SGF,FAR,108,-93.38860321,37.24570084,-96.81580352783205,46.92070007324219,MO,ND,Springfield,Fargo
HLN,FAR,42,-111.98300170898438,46.6068000793457,-96.81580352783205,46.92070007324219,MT,ND,Helena,Fargo
MWA,FAR,126,-89.01110077,37.75500107,-96.81580352783205,46.92070007324219,IL,ND,Marion,Fargo
MOT,FAR,224,-101.27999877929688,48.2593994140625,-96.81580352783205,46.92070007324219,ND,ND,Minot,Fargo
ATL,FAR,295,-84.428101,33.6367,-96.81580352783205,46.92070007324219,GA,ND,Atlanta,Fargo
ORD,FAR,43793,-87.9048,41.9786,-96.81580352783205,46.92070007324219,IL,ND,Chicago,Fargo
DTW,FAR,113,-83.35340118408203,42.212398529052734,-96.81580352783205,46.92070007324219,MI,ND,Detroit,Fargo
RAP,FAR,47,-103.05699920654295,44.0452995300293,-96.81580352783205,46.92070007324219,SD,ND,Rapid City,Fargo
LAS,FAR,20212,-115.1520004,36.08010101,-96.81580352783205,46.92070007324219,NV,ND,Las Vegas,Fargo
MKE,FAR,47,-87.89659881591797,42.94720077514648,-96.81580352783205,46.92070007324219,WI,ND,Milwaukee,Fargo
BNA,FAR,111,-86.6781997680664,36.1245002746582,-96.81580352783205,46.92070007324219,TN,ND,Nashville,Fargo
SAN,FAR,144,-117.190002441,32.7336006165,-96.81580352783205,46.92070007324219,CA,ND,San Diego,Fargo
SNA,FAR,209,-117.8679962,33.67570114,-96.81580352783205,46.92070007324219,CA,ND,Santa Ana,Fargo
STL,FAR,46,-90.370003,38.748697,-96.81580352783205,46.92070007324219,MO,ND,St. Louis,Fargo
PHX,FAR,148,-112.01200103759766,33.43429946899414,-96.81580352783205,46.92070007324219,AZ,ND,Phoenix,Fargo
BIL,FAR,100,-108.54299926757812,45.807701110839844,-96.81580352783205,46.92070007324219,MT,ND,Billings,Fargo
AZA,FAR,17371,-111.6549988,33.30780029,-96.81580352783205,46.92070007324219,AZ,ND,Phoenix,Fargo
BIS,FAR,59,-100.74600219726562,46.77270126342773,-96.81580352783205,46.92070007324219,ND,ND,Bismarck,Fargo
LBB,FAR,50,-101.822998,33.663601,-96.81580352783205,46.92070007324219,TX,ND,Lubbock,Fargo
LAR,FAR,115,-105.6750030517578,41.31209945678711,-96.81580352783205,46.92070007324219,WY,ND,Laramie,Fargo
SFB,FAR,1449,-81.23750305175781,28.7775993347168,-96.81580352783205,46.92070007324219,FL,ND,Orlando,Fargo
MCO,FAR,148,-81.30899810791016,28.429399490356445,-96.81580352783205,46.92070007324219,FL,ND,Orlando,Fargo
IAH,FAR,114,-95.34140014648438,29.98439979553223,-96.81580352783205,46.92070007324219,TX,ND,Houston,Fargo
MSN,FAR,147,-89.3375015258789,43.13990020751953,-96.81580352783205,46.92070007324219,WI,ND,Madison,Fargo
BDL,FAR,106,-72.68319702149999,41.9388999939,-96.81580352783205,46.92070007324219,CT,ND,Hartford,Fargo
MSP,FNT,14518,-93.221802,44.882,-83.74359893798828,42.96540069580078,MN,MI,Minneapolis,Flint
GRR,FNT,68,-85.52279663,42.88079834,-83.74359893798828,42.96540069580078,MI,MI,Grand Rapids,Flint
CLE,FNT,18724,-81.8498001099,41.411701202399996,-83.74359893798828,42.96540069580078,OH,MI,Cleveland,Flint
BWI,FNT,42,-76.668297,39.1754,-83.74359893798828,42.96540069580078,MD,MI,Baltimore,Flint
LGA,FNT,6539,-73.87259674,40.77719879,-83.74359893798828,42.96540069580078,NY,MI,New York,Flint
SYR,FNT,36,-76.1063003540039,43.11119842529297,-83.74359893798828,42.96540069580078,NY,MI,Syracuse,Flint
GRB,FNT,50,-88.12960052490234,44.48509979248047,-83.74359893798828,42.96540069580078,WI,MI,Green Bay,Flint
TYS,FNT,26,-83.99400329999997,35.81100082,-83.74359893798828,42.96540069580078,TN,MI,Knoxville,Flint
ATL,FNT,208300,-84.428101,33.6367,-83.74359893798828,42.96540069580078,GA,MI,Atlanta,Flint
DTW,FNT,103542,-83.35340118408203,42.212398529052734,-83.74359893798828,42.96540069580078,MI,MI,Detroit,Flint
ORD,FNT,44218,-87.9048,41.9786,-83.74359893798828,42.96540069580078,IL,MI,Chicago,Flint
MDW,FNT,51,-87.752403,41.785999,-83.74359893798828,42.96540069580078,IL,MI,Chicago,Flint
DFW,FNT,9059,-97.038002,32.896801,-83.74359893798828,42.96540069580078,TX,MI,Dallas,Flint
BOS,FNT,114,-71.00520325,42.36429977,-83.74359893798828,42.96540069580078,MA,MI,Boston,Flint
CWA,FNT,20,-89.6668014526,44.7775993347,-83.74359893798828,42.96540069580078,WI,MI,Wausau,Flint
APN,FNT,20,-83.56030273,45.07809829999999,-83.74359893798828,42.96540069580078,MI,MI,Alpena,Flint
TPA,FNT,19973,-82.533203125,27.975500106811523,-83.74359893798828,42.96540069580078,FL,MI,Tampa,Flint
ALB,FNT,45,-73.80169677734375,42.74829864501953,-83.74359893798828,42.96540069580078,NY,MI,Albany,Flint
OMA,FNT,49,-95.894096,41.3032,-83.74359893798828,42.96540069580078,NE,MI,Omaha,Flint
MCO,FNT,43074,-81.30899810791016,28.429399490356445,-83.74359893798828,42.96540069580078,FL,MI,Orlando,Flint
MKG,FNT,1930,-86.238197,43.169498,-83.74359893798828,42.96540069580078,MI,MI,Muskegon,Flint
BDL,FNT,75,-72.68319702149999,41.9388999939,-83.74359893798828,42.96540069580078,CT,MI,Hartford,Flint
CMH,FNT,18,-82.891899,39.998001,-83.74359893798828,42.96540069580078,OH,MI,Columbus,Flint
PVD,FNT,64,-71.42040300000002,41.732601,-83.74359893798828,42.96540069580078,RI,MI,Providence,Flint
MDT,FNT,36,-76.7633972168,40.1935005188,-83.74359893798828,42.96540069580078,PA,MI,Harrisburg,Flint
CVG,FNT,37,-84.6678009033,39.0488014221,-83.74359893798828,42.96540069580078,OH,MI,Cincinnati,Flint
BHM,FNT,43,-86.75350189,33.56290054,-83.74359893798828,42.96540069580078,AL,MI,Birmingham,Flint
MKE,FNT,24097,-87.89659881591797,42.94720077514648,-83.74359893798828,42.96540069580078,WI,MI,Milwaukee,Flint
LAS,FNT,10361,-115.1520004,36.08010101,-83.74359893798828,42.96540069580078,NV,MI,Las Vegas,Flint
MQT,FNT,14,-87.39540100100002,46.3535995483,-83.74359893798828,42.96540069580078,MI,MI,Marquette,Flint
ABQ,HOB,830,-106.609001,35.040199,-103.2170029,32.6875,NM,NM,Albuquerque,Hobbs
MAF,HOB,197,-102.2020034790039,31.9424991607666,-103.2170029,32.6875,TX,NM,Midland,Hobbs
CNM,HOB,688,-104.26300048828124,32.337501525878906,-103.2170029,32.6875,NM,NM,Carlsbad,Hobbs
RUI,HOB,386,-105.53500366211,33.462799072266,-103.2170029,32.6875,NM,NM,Ruidoso,Hobbs
PIR,HON,2359,-100.2860031,44.38270187,-98.22850036621094,44.38520050048828,SD,SD,Pierre,Huron
PHX,LGU,106,-112.01200103759766,33.43429946899414,-111.851997375,41.7911987305,AZ,UT,Phoenix,Logan
SJC,LGU,114,-121.929001,37.362598,-111.851997375,41.7911987305,CA,UT,San Jose,Logan
LAS,LGU,120,-115.1520004,36.08010101,-111.851997375,41.7911987305,NV,UT,Las Vegas,Logan
RNO,LGU,113,-119.76799774169922,39.49909973144531,-111.851997375,41.7911987305,NV,UT,Reno,Logan
FAT,LGU,114,-119.718002,36.776199,-111.851997375,41.7911987305,CA,UT,Fresno,Logan
MLU,LGU,107,-92.0376968383789,32.51089859008789,-111.851997375,41.7911987305,LA,UT,Monroe,Logan
EUG,LGU,126,-123.21199798583984,44.12459945678711,-111.851997375,41.7911987305,OR,UT,Eugene,Logan
ATL,MCN,9598,-84.428101,33.6367,-83.64920043945312,32.692798614501946,GA,GA,Atlanta,Macon
GNV,MCN,74,-82.27179718020001,29.6900997162,-83.64920043945312,32.692798614501946,FL,GA,Gainesville,Macon
ILM,MCN,31,-77.90260314941406,34.27059936523437,-83.64920043945312,32.692798614501946,NC,GA,Wilmington,Macon
PVD,MCN,37,-71.42040300000002,41.732601,-83.64920043945312,32.692798614501946,RI,GA,Providence,Macon
RDU,MCN,42,-78.7874984741211,35.877601623535156,-83.64920043945312,32.692798614501946,NC,GA,Raleigh,Macon
CAE,MCN,55,-81.11949920654297,33.93880081176758,-83.64920043945312,32.692798614501946,SC,GA,Columbia,Macon
JAN,MCN,45,-90.0758972168,32.3111991882,-83.64920043945312,32.692798614501946,MS,GA,Jackson,Macon
GPT,MCN,43,-89.07009887695312,30.40730094909668,-83.64920043945312,32.692798614501946,MS,GA,Gulfport,Macon
AHN,MCN,13,-83.32630157470703,33.94860076904297,-83.64920043945312,32.692798614501946,GA,GA,Athens,Macon
ALB,MCN,69,-73.80169677734375,42.74829864501953,-83.64920043945312,32.692798614501946,NY,GA,Albany,Macon
MIA,MCN,130,-80.29060363769531,25.79319953918457,-83.64920043945312,32.692798614501946,FL,GA,Miami,Macon
OKC,MCN,38,-97.60070037841795,35.39310073852539,-83.64920043945312,32.692798614501946,OK,GA,Oklahoma City,Macon
PWM,MCN,56,-70.309303,43.646198,-83.64920043945312,32.692798614501946,ME,GA,Portland,Macon
PNS,MIA,146,-87.1866,30.4734,-80.29060363769531,25.79319953918457,FL,FL,Pensacola,Miami
BNA,MIA,64631,-86.6781997680664,36.1245002746582,-80.29060363769531,25.79319953918457,TN,FL,Nashville,Miami
MKE,MIA,121,-87.89659881591797,42.94720077514648,-80.29060363769531,25.79319953918457,WI,FL,Milwaukee,Miami
LAS,MIA,125298,-115.1520004,36.08010101,-80.29060363769531,25.79319953918457,NV,FL,Las Vegas,Miami
LAS,OPF,7,-115.1520004,36.08010101,-80.278397,25.907,NV,FL,Las Vegas,Miami
PIT,MIA,16172,-80.23290253,40.49150085,-80.29060363769531,25.79319953918457,PA,FL,Pittsburgh,Miami
CVG,MIA,50429,-84.6678009033,39.0488014221,-80.29060363769531,25.79319953918457,OH,FL,Cincinnati,Miami
GSO,MIA,15417,-79.93730163574219,36.097801208496094,-80.29060363769531,25.79319953918457,NC,FL,Greensboro,Miami
STL,MIA,102038,-90.370003,38.748697,-80.29060363769531,25.79319953918457,MO,FL,St. Louis,Miami
CHS,MIA,155,-80.04049683,32.89860153,-80.29060363769531,25.79319953918457,SC,FL,Charleston,Miami
AEX,MIA,486,-92.54979705810548,31.32740020751953,-80.29060363769531,25.79319953918457,LA,FL,Alexandria,Miami
FWA,MIA,149,-85.19509888,40.97850037,-80.29060363769531,25.79319953918457,IN,FL,Fort Wayne,Miami
MHT,MIA,119,-71.435699,42.932598,-80.29060363769531,25.79319953918457,NH,FL,Manchester,Miami
GSP,MIA,29,-82.2189025879,34.895698547399995,-80.29060363769531,25.79319953918457,SC,FL,Greenville,Miami
TPA,MIA,217580,-82.533203125,27.975500106811523,-80.29060363769531,25.79319953918457,FL,FL,Tampa,Miami
TUL,MIA,210,-95.88809967041016,36.19839859008789,-80.29060363769531,25.79319953918457,OK,FL,Tulsa,Miami
BGR,MIA,265,-68.82810211181639,44.80739974975586,-80.29060363769531,25.79319953918457,ME,FL,Bangor,Miami
OMA,MIA,41,-95.894096,41.3032,-80.29060363769531,25.79319953918457,NE,FL,Omaha,Miami
DFW,MIA,482026,-97.038002,32.896801,-80.29060363769531,25.79319953918457,TX,FL,Dallas,Miami
BOS,MIA,344737,-71.00520325,42.36429977,-80.29060363769531,25.79319953918457,MA,FL,Boston,Miami
MLU,MIA,154,-92.0376968383789,32.51089859008789,-80.29060363769531,25.79319953918457,LA,FL,Monroe,Miami
DAL,MIA,55,-96.851799,32.847099,-80.29060363769531,25.79319953918457,TX,FL,Dallas,Miami
LRD,MIA,74,-99.46160125732422,27.543800354003906,-80.29060363769531,25.79319953918457,TX,FL,Laredo,Miami
EWR,MIA,378489,-74.168701171875,40.69250106811523,-80.29060363769531,25.79319953918457,NJ,FL,Newark,Miami
TCM,MIA,77,-122.475997925,47.1376991272,-80.29060363769531,25.79319953918457,WA,FL,Tacoma,Miami
MCO,MIA,416649,-81.30899810791016,28.429399490356445,-80.29060363769531,25.79319953918457,FL,FL,Orlando,Miami
IAH,MIA,267846,-95.34140014648438,29.98439979553223,-80.29060363769531,25.79319953918457,TX,FL,Houston,Miami
MEM,MIA,53394,-89.97669982910156,35.04240036010742,-80.29060363769531,25.79319953918457,TN,FL,Memphis,Miami
HOU,MIA,30,-95.27890015,29.64539909,-80.29060363769531,25.79319953918457,TX,FL,Houston,Miami
EAR,MIA,1,-99.00679779,40.72700119,-80.29060363769531,25.79319953918457,NE,FL,Kearney,Miami
OAK,MIA,70,-122.221001,37.721298,-80.29060363769531,25.79319953918457,CA,FL,Oakland,Miami
ORL,MIA,7,-81.332901,28.5455,-80.29060363769531,25.79319953918457,FL,FL,Orlando,Miami
EYW,MIA,80942,-81.75959777832031,24.556100845336914,-80.29060363769531,25.79319953918457,FL,FL,Key West,Miami
CMH,MIA,16842,-82.891899,39.998001,-80.29060363769531,25.79319953918457,OH,FL,Columbus,Miami
BDL,MIA,40975,-72.68319702149999,41.9388999939,-80.29060363769531,25.79319953918457,CT,FL,Hartford,Miami
SEA,MIA,50300,-122.308998,47.449001,-80.29060363769531,25.79319953918457,WA,FL,Seattle,Miami
RDU,MIA,128548,-78.7874984741211,35.877601623535156,-80.29060363769531,25.79319953918457,NC,FL,Raleigh,Miami
AND,MIA,35,-82.70939636230001,34.4945983887,-80.29060363769531,25.79319953918457,SC,FL,Anderson,Miami
PHX,MIA,42609,-112.01200103759766,33.43429946899414,-80.29060363769531,25.79319953918457,AZ,FL,Phoenix,Miami
ROA,MIA,302,-79.975403,37.3255,-80.29060363769531,25.79319953918457,VA,FL,Roanoke,Miami
JAX,MIA,76318,-81.68789672851562,30.49410057067871,-80.29060363769531,25.79319953918457,FL,FL,Jacksonville,Miami
PHL,MIA,274572,-75.24109649658203,39.87189865112305,-80.29060363769531,25.79319953918457,PA,FL,Philadelphia,Miami
SFO,MIA,194541,-122.375,37.61899948120117,-80.29060363769531,25.79319953918457,CA,FL,San Francisco,Miami
IND,MIA,16882,-86.294403,39.7173,-80.29060363769531,25.79319953918457,IN,FL,Indianapolis,Miami
OKC,MIA,107,-97.60070037841795,35.39310073852539,-80.29060363769531,25.79319953918457,OK,FL,Oklahoma City,Miami
BWG,MIA,139,-86.41970062259999,36.9645004272,-80.29060363769531,25.79319953918457,KY,FL,Bowling Green,Miami
FLL,MIA,4862,-80.152702,26.072599,-80.29060363769531,25.79319953918457,FL,FL,Fort Lauderdale,Miami
PBI,MIA,4182,-80.09559631347656,26.68320083618164,-80.29060363769531,25.79319953918457,FL,FL,West Palm Beach,Miami
COS,MIA,168,-104.700996,38.805801,-80.29060363769531,25.79319953918457,CO,FL,Colorado Springs,Miami
CHO,MIA,225,-78.4529037475586,38.13859939575195,-80.29060363769531,25.79319953918457,VA,FL,Charlottesville,Miami
SLC,MIA,40,-111.97799682617188,40.78839874267578,-80.29060363769531,25.79319953918457,UT,FL,Salt Lake City,Miami
CLL,MIA,162,-96.36380005,30.58860016,-80.29060363769531,25.79319953918457,TX,FL,College Station,Miami
CLE,MIA,23286,-81.8498001099,41.411701202399996,-80.29060363769531,25.79319953918457,OH,FL,Cleveland,Miami
BWI,MIA,127624,-76.668297,39.1754,-80.29060363769531,25.79319953918457,MD,FL,Baltimore,Miami
CLT,MIA,312575,-80.94309997558594,35.2140007019043,-80.29060363769531,25.79319953918457,NC,FL,Charlotte,Miami
MTN,MIA,2,-76.413803,39.325699,-80.29060363769531,25.79319953918457,MD,FL,Baltimore,Miami
BKL,MIA,78,-81.68329620361328,41.51750183105469,-80.29060363769531,25.79319953918457,OH,FL,Cleveland,Miami
CLT,OPF,11,-80.94309997558594,35.2140007019043,-80.278397,25.907,NC,FL,Charlotte,Miami
LSE,MIA,135,-91.256699,43.879002,-80.29060363769531,25.79319953918457,WI,FL,La Crosse,Miami
JFK,MIA,477116,-73.7789,40.639801,-80.29060363769531,25.79319953918457,NY,FL,New York,Miami
LGA,MIA,527763,-73.87259674,40.77719879,-80.29060363769531,25.79319953918457,NY,FL,New York,Miami
RIC,MIA,14922,-77.3197021484375,37.50519943237305,-80.29060363769531,25.79319953918457,VA,FL,Richmond,Miami
SAV,MIA,12853,-81.20210266,32.12760162,-80.29060363769531,25.79319953918457,GA,FL,Savannah,Miami
SAT,MIA,310,-98.469803,29.533701,-80.29060363769531,25.79319953918457,TX,FL,San Antonio,Miami
MSP,MIA,116244,-93.221802,44.882,-80.29060363769531,25.79319953918457,MN,FL,Minneapolis,Miami
MSY,MIA,107089,-90.25800323486328,29.99340057373047,-80.29060363769531,25.79319953918457,LA,FL,New Orleans,Miami
LAX,MIA,426569,-118.407997,33.942501,-80.29060363769531,25.79319953918457,CA,FL,Los Angeles,Miami
IAD,MIA,103500,-77.45580292,38.94449997,-80.29060363769531,25.79319953918457,DC,FL,Washington,Miami
LIT,MIA,101,-92.22429656979999,34.729400634799994,-80.29060363769531,25.79319953918457,AR,FL,Little Rock,Miami
MCI,MIA,5123,-94.713898,39.2976,-80.29060363769531,25.79319953918457,MO,FL,Kansas City,Miami
DCA,MIA,377577,-77.037697,38.8521,-80.29060363769531,25.79319953918457,DC,FL,Washington,Miami
GNV,MIA,2384,-82.27179718020001,29.6900997162,-80.29060363769531,25.79319953918457,FL,FL,Gainesville,Miami
ABQ,MIA,72,-106.609001,35.040199,-80.29060363769531,25.79319953918457,NM,FL,Albuquerque,Miami
SMF,MIA,34,-121.59100341796876,38.69540023803711,-80.29060363769531,25.79319953918457,CA,FL,Sacramento,Miami
TCL,MIA,54,-87.611396789551,33.220600128174,-80.29060363769531,25.79319953918457,AL,FL,Tuscaloosa,Miami
TLH,MIA,29208,-84.35030364990234,30.396499633789066,-80.29060363769531,25.79319953918457,FL,FL,Tallahassee,Miami
GRR,MIA,157,-85.52279663,42.88079834,-80.29060363769531,25.79319953918457,MI,FL,Grand Rapids,Miami
FAY,MIA,89,-78.88030242919922,34.991199493408196,-80.29060363769531,25.79319953918457,NC,FL,Fayetteville,Miami
XNA,MIA,3301,-94.306801,36.281898,-80.29060363769531,25.79319953918457,AR,FL,Fayetteville,Miami
POB,MIA,4,-79.014503479004,35.1708984375,-80.29060363769531,25.79319953918457,NC,FL,Fayetteville,Miami
ATL,MIA,767114,-84.428101,33.6367,-80.29060363769531,25.79319953918457,GA,FL,Atlanta,Miami
PDK,OPF,10,-84.3020019531,33.8755989075,-80.278397,25.907,GA,FL,Atlanta,Miami
DTW,MIA,143799,-83.35340118408203,42.212398529052734,-80.29060363769531,25.79319953918457,MI,FL,Detroit,Miami
ORD,MIA,592290,-87.9048,41.9786,-80.29060363769531,25.79319953918457,IL,FL,Chicago,Miami
ELP,MIA,147,-106.37799840000002,31.80719948,-80.29060363769531,25.79319953918457,TX,FL,El Paso,Miami
MDW,MIA,13716,-87.752403,41.785999,-80.29060363769531,25.79319953918457,IL,FL,Chicago,Miami
FAR,MOT,93,-96.81580352783205,46.92070007324219,-101.27999877929688,48.2593994140625,ND,ND,Fargo,Minot
SLC,MOT,138,-111.97799682617188,40.78839874267578,-101.27999877929688,48.2593994140625,UT,ND,Salt Lake City,Minot
MSP,MOT,70825,-93.221802,44.882,-101.27999877929688,48.2593994140625,MN,ND,Minneapolis,Minot
BIS,MOT,165,-100.74600219726562,46.77270126342773,-101.27999877929688,48.2593994140625,ND,ND,Bismarck,Minot
BIL,MOT,100,-108.54299926757812,45.807701110839844,-101.27999877929688,48.2593994140625,MT,ND,Billings,Minot
BUF,OCF,45,-78.73220062,42.94049835,-82.22419739,29.17259979,NY,FL,Buffalo,Ocala
TUP,OCF,135,-88.7698974609375,34.26810073852539,-82.22419739,29.17259979,MS,FL,Tupelo,Ocala
GPT,OCF,96,-89.07009887695312,30.40730094909668,-82.22419739,29.17259979,MS,FL,Gulfport,Ocala
PHL,OCF,43,-75.24109649658203,39.87189865112305,-82.22419739,29.17259979,PA,FL,Philadelphia,Ocala
OAK,OGD,97,-122.221001,37.721298,-112.0120010376,41.195899963379,CA,UT,Oakland,Ogden
SJC,OGD,46,-121.929001,37.362598,-112.0120010376,41.195899963379,CA,UT,San Jose,Ogden
RFD,HIF,125,-89.09719848632812,42.19540023803711,-111.973086,41.12403,IL,UT,Rockford,Ogden
FAT,OGD,48,-119.718002,36.776199,-112.0120010376,41.195899963379,CA,UT,Fresno,Ogden
RNO,OGD,67,-119.76799774169922,39.49909973144531,-112.0120010376,41.195899963379,NV,UT,Reno,Ogden
BGR,HIF,90,-68.82810211181639,44.80739974975586,-111.973086,41.12403,ME,UT,Bangor,Ogden
LRU,OGD,28,-106.9219970703125,32.28939819335937,-112.0120010376,41.195899963379,NM,UT,Las Cruces,Ogden
CLE,OMA,17709,-81.8498001099,41.411701202399996,-95.894096,41.3032,OH,NE,Cleveland,Omaha
CLT,OMA,109,-80.94309997558594,35.2140007019043,-95.894096,41.3032,NC,NE,Charlotte,Omaha
BWI,OMA,561,-76.668297,39.1754,-95.894096,41.3032,MD,NE,Baltimore,Omaha
TYS,OMA,44,-83.99400329999997,35.81100082,-95.894096,41.3032,TN,NE,Knoxville,Omaha
PDX,OMA,254,-122.5979996,45.58869934,-95.894096,41.3032,OR,NE,Portland,Omaha
ALO,OMA,29,-92.40029907226562,42.55709838867188,-95.894096,41.3032,IA,NE,Waterloo,Omaha
LGA,OMA,21,-73.87259674,40.77719879,-95.894096,41.3032,NY,NE,New York,Omaha
SJC,OMA,103,-121.929001,37.362598,-95.894096,41.3032,CA,NE,San Jose,Omaha
MSP,OMA,161612,-93.221802,44.882,-95.894096,41.3032,MN,NE,Minneapolis,Omaha
FSD,OMA,188,-96.741897583,43.5820007324,-95.894096,41.3032,SD,NE,Sioux Falls,Omaha
LAX,OMA,1068,-118.407997,33.942501,-95.894096,41.3032,CA,NE,Los Angeles,Omaha
SAT,OMA,221,-98.469803,29.533701,-95.894096,41.3032,TX,NE,San Antonio,Omaha
MSY,OMA,57,-90.25800323486328,29.99340057373047,-95.894096,41.3032,LA,NE,New Orleans,Omaha
GRI,OMA,1436,-98.30960083007812,40.96749877929688,-95.894096,41.3032,NE,NE,Grand Island,Omaha
IND,OMA,260,-86.294403,39.7173,-95.894096,41.3032,IN,NE,Indianapolis,Omaha
TLH,OMA,62,-84.35030364990234,30.396499633789066,-95.894096,41.3032,FL,NE,Tallahassee,Omaha
SUX,OMA,249,-96.384399,42.402599,-95.894096,41.3032,IA,NE,Sioux City,Omaha
MCI,OMA,3316,-94.713898,39.2976,-95.894096,41.3032,MO,NE,Kansas City,Omaha
DCA,OMA,40035,-77.037697,38.8521,-95.894096,41.3032,DC,NE,Washington,Omaha
IAD,OMA,1436,-77.45580292,38.94449997,-95.894096,41.3032,DC,NE,Washington,Omaha
ABQ,OMA,104,-106.609001,35.040199,-95.894096,41.3032,NM,NE,Albuquerque,Omaha
SMF,OMA,2,-121.59100341796876,38.69540023803711,-95.894096,41.3032,CA,NE,Sacramento,Omaha
BTR,OMA,51,-91.149597,30.533199,-95.894096,41.3032,LA,NE,Baton Rouge,Omaha
PHL,OMA,494,-75.24109649658203,39.87189865112305,-95.894096,41.3032,PA,NE,Philadelphia,Omaha
SFO,OMA,202,-122.375,37.61899948120117,-95.894096,41.3032,CA,NE,San Francisco,Omaha
ACY,OMA,116,-74.57720184326172,39.45759963989258,-95.894096,41.3032,NJ,NE,Atlantic City,Omaha
SLC,OMA,26659,-111.97799682617188,40.78839874267578,-95.894096,41.3032,UT,NE,Salt Lake City,Omaha
DFW,OMA,181933,-97.038002,32.896801,-95.894096,41.3032,TX,NE,Dallas,Omaha
DAL,OMA,392,-96.851799,32.847099,-95.894096,41.3032,TX,NE,Dallas,Omaha
MWA,OMA,37,-89.01110077,37.75500107,-95.894096,41.3032,IL,NE,Marion,Omaha
MIA,OMA,39,-80.29060363769531,25.79319953918457,-95.894096,41.3032,FL,NE,Miami,Omaha
TUL,OMA,195,-95.88809967041016,36.19839859008789,-95.894096,41.3032,OK,NE,Tulsa,Omaha
TPA,OMA,25,-82.533203125,27.975500106811523,-95.894096,41.3032,FL,NE,Tampa,Omaha
CAK,OMA,56,-81.44219970703125,40.916099548339844,-95.894096,41.3032,OH,NE,Akron,Omaha
AUS,OMA,74,-97.6698989868164,30.194499969482425,-95.894096,41.3032,TX,NE,Austin,Omaha
RNO,OMA,248,-119.76799774169922,39.49909973144531,-95.894096,41.3032,NV,NE,Reno,Omaha
ALB,OMA,52,-73.80169677734375,42.74829864501953,-95.894096,41.3032,NY,NE,Albany,Omaha
ACT,OMA,165,-97.23049926757812,31.61129951477051,-95.894096,41.3032,TX,NE,Waco,Omaha
EWR,OMA,37260,-74.168701171875,40.69250106811523,-95.894096,41.3032,NJ,NE,Newark,Omaha
TUS,OMA,6837,-110.94100189208984,32.116100311279304,-95.894096,41.3032,AZ,NE,Tucson,Omaha
CWA,OMA,100,-89.6668014526,44.7775993347,-95.894096,41.3032,WI,NE,Wausau,Omaha
PIA,OMA,45,-89.6932983398,40.664199829100006,-95.894096,41.3032,IL,NE,Peoria,Omaha
MKE,OMA,55637,-87.89659881591797,42.94720077514648,-95.894096,41.3032,WI,NE,Milwaukee,Omaha
SAN,OMA,12594,-117.190002441,32.7336006165,-95.894096,41.3032,CA,NE,San Diego,Omaha
LAS,OMA,114197,-115.1520004,36.08010101,-95.894096,41.3032,NV,NE,Las Vegas,Omaha
BNA,OMA,113,-86.6781997680664,36.1245002746582,-95.894096,41.3032,TN,NE,Nashville,Omaha
SNA,OMA,261,-117.8679962,33.67570114,-95.894096,41.3032,CA,NE,Santa Ana,Omaha
STL,OMA,106017,-90.370003,38.748697,-95.894096,41.3032,MO,NE,St. Louis,Omaha
DSM,OMA,569,-93.66310119628906,41.53400039672852,-95.894096,41.3032,IA,NE,Des Moines,Omaha
CVG,OMA,40720,-84.6678009033,39.0488014221,-95.894096,41.3032,OH,NE,Cincinnati,Omaha
AEX,OMA,55,-92.54979705810548,31.32740020751953,-95.894096,41.3032,LA,NE,Alexandria,Omaha
LUK,OMA,45,-84.41860199,39.10329819,-95.894096,41.3032,OH,NE,Cincinnati,Omaha
MDT,OMA,80,-76.7633972168,40.1935005188,-95.894096,41.3032,PA,NE,Harrisburg,Omaha
LRU,OMA,100,-106.9219970703125,32.28939819335937,-95.894096,41.3032,NM,NE,Las Cruces,Omaha
IAH,OMA,106503,-95.34140014648438,29.98439979553223,-95.894096,41.3032,TX,NE,Houston,Omaha
ORD,OMA,270291,-87.9048,41.9786,-95.894096,41.3032,IL,NE,Chicago,Omaha
DTW,OMA,63551,-83.35340118408203,42.212398529052734,-95.894096,41.3032,MI,NE,Detroit,Omaha
MDW,OMA,195792,-87.752403,41.785999,-95.894096,41.3032,IL,NE,Chicago,Omaha
ELP,OMA,50,-106.37799840000002,31.80719948,-95.894096,41.3032,TX,NE,El Paso,Omaha
ATL,OMA,78223,-84.428101,33.6367,-95.894096,41.3032,GA,NE,Atlanta,Omaha
BDL,OMA,124,-72.68319702149999,41.9388999939,-95.894096,41.3032,CT,NE,Hartford,Omaha
PHX,OMA,196058,-112.01200103759766,33.43429946899414,-95.894096,41.3032,AZ,NE,Phoenix,Omaha
ICT,OMA,390,-97.433098,37.649899,-95.894096,41.3032,KS,NE,Wichita,Omaha
RDU,OMA,125,-78.7874984741211,35.877601623535156,-95.894096,41.3032,NC,NE,Raleigh,Omaha
GEG,OMA,6,-117.53399658203124,47.61989974975586,-95.894096,41.3032,WA,NE,Spokane,Omaha
ATW,OMA,20,-88.51909637450001,44.258098602299995,-95.894096,41.3032,WI,NE,Appleton,Omaha
SEA,OMA,414,-122.308998,47.449001,-95.894096,41.3032,WA,NE,Seattle,Omaha
ROA,OMA,135,-79.975403,37.3255,-95.894096,41.3032,VA,NE,Roanoke,Omaha
COU,OMA,2,-92.219597,38.8181,-95.894096,41.3032,MO,NE,Columbia,Omaha
LNK,OMA,400,-96.75920104980469,40.85100173950195,-95.894096,41.3032,NE,NE,Lincoln,Omaha
OAK,OMA,274,-122.221001,37.721298,-95.894096,41.3032,CA,NE,Oakland,Omaha
MEM,OMA,65308,-89.97669982910156,35.04240036010742,-95.894096,41.3032,TN,NE,Memphis,Omaha
MCO,OMA,1003,-81.30899810791016,28.429399490356445,-95.894096,41.3032,FL,NE,Orlando,Omaha
MSN,OMA,99,-89.3375015258789,43.13990020751953,-95.894096,41.3032,WI,NE,Madison,Omaha
HOU,OMA,185,-95.27890015,29.64539909,-95.894096,41.3032,TX,NE,Houston,Omaha
JAN,OMA,10,-90.0758972168,32.3111991882,-95.894096,41.3032,MS,NE,Jackson,Omaha
SAN,PVU,119,-117.190002441,32.7336006165,-111.72299957275,40.219200134277,CA,UT,San Diego,Provo
LAS,PVU,83,-115.1520004,36.08010101,-111.72299957275,40.219200134277,NV,UT,Las Vegas,Provo
STL,PVU,68,-90.370003,38.748697,-111.72299957275,40.219200134277,MO,UT,St. Louis,Provo
SGF,PVU,43,-93.38860321,37.24570084,-111.72299957275,40.219200134277,MO,UT,Springfield,Provo
OKC,PVU,26,-97.60070037841795,35.39310073852539,-111.72299957275,40.219200134277,OK,UT,Oklahoma City,Provo
ORD,PVU,140,-87.9048,41.9786,-111.72299957275,40.219200134277,IL,UT,Chicago,Provo
LRD,PVU,67,-99.46160125732422,27.543800354003906,-111.72299957275,40.219200134277,TX,UT,Laredo,Provo
SEA,PVU,128,-122.308998,47.449001,-111.72299957275,40.219200134277,WA,UT,Seattle,Provo
LAR,PVU,124,-105.6750030517578,41.31209945678711,-111.72299957275,40.219200134277,WY,UT,Laramie,Provo
SLC,SLE,14939,-111.97799682617188,40.78839874267578,-123.00299840000002,44.90950012,UT,OR,Salt Lake City,Salem
SAF,SLE,14,-106.08899688700001,35.617099761999995,-123.00299840000002,44.90950012,NM,OR,Santa Fe,Salem
RDM,SLE,84,-121.1500015,44.2541008,-123.00299840000002,44.90950012,OR,OR,Bend,Salem
EUG,SLE,375,-123.21199798583984,44.12459945678711,-123.00299840000002,44.90950012,OR,OR,Eugene,Salem
MSP,TPA,153109,-93.221802,44.882,-82.533203125,27.975500106811523,MN,FL,Minneapolis,Tampa
LAX,TPA,69153,-118.407997,33.942501,-82.533203125,27.975500106811523,CA,FL,Los Angeles,Tampa
SAT,TPA,33658,-98.469803,29.533701,-82.533203125,27.975500106811523,TX,FL,San Antonio,Tampa
MSY,TPA,117633,-90.25800323486328,29.99340057373047,-82.533203125,27.975500106811523,LA,FL,New Orleans,Tampa
IND,TPA,146873,-86.294403,39.7173,-82.533203125,27.975500106811523,IN,FL,Indianapolis,Tampa
TLH,TPA,24505,-84.35030364990234,30.396499633789066,-82.533203125,27.975500106811523,FL,FL,Tallahassee,Tampa
CID,TPA,1069,-91.71080017089844,41.88470077514648,-82.533203125,27.975500106811523,IA,FL,Cedar Rapids,Tampa
DCA,TPA,159036,-77.037697,38.8521,-82.533203125,27.975500106811523,DC,FL,Washington,Tampa
MCI,TPA,68722,-94.713898,39.2976,-82.533203125,27.975500106811523,MO,FL,Kansas City,Tampa
IAD,TPA,197106,-77.45580292,38.94449997,-82.533203125,27.975500106811523,DC,FL,Washington,Tampa
GNV,TPA,1163,-82.27179718020001,29.6900997162,-82.533203125,27.975500106811523,FL,FL,Gainesville,Tampa
ILG,TPA,40,-75.60649872,39.67869949,-82.533203125,27.975500106811523,DE,FL,Wilmington,Tampa
SBN,TPA,35,-86.31729888916016,41.70869827270508,-82.533203125,27.975500106811523,IN,FL,South Bend,Tampa
LIT,TPA,134,-92.22429656979999,34.729400634799994,-82.533203125,27.975500106811523,AR,FL,Little Rock,Tampa
BTR,TPA,113,-91.149597,30.533199,-82.533203125,27.975500106811523,LA,FL,Baton Rouge,Tampa
ABQ,TPA,39741,-106.609001,35.040199,-82.533203125,27.975500106811523,NM,FL,Albuquerque,Tampa
BWI,TPA,303146,-76.668297,39.1754,-82.533203125,27.975500106811523,MD,FL,Baltimore,Tampa
CLT,TPA,378303,-80.94309997558594,35.2140007019043,-82.533203125,27.975500106811523,NC,FL,Charlotte,Tampa
CLE,TPA,81827,-81.8498001099,41.411701202399996,-82.533203125,27.975500106811523,OH,FL,Cleveland,Tampa
LGA,TPA,133382,-73.87259674,40.77719879,-82.533203125,27.975500106811523,NY,FL,New York,Tampa
JFK,TPA,391953,-73.7789,40.639801,-82.533203125,27.975500106811523,NY,FL,New York,Tampa
SAV,MCF,21,-81.20210266,32.12760162,-82.52120209,27.84930038,GA,FL,Savannah,Tampa
RIC,TPA,142,-77.3197021484375,37.50519943237305,-82.533203125,27.975500106811523,VA,FL,Richmond,Tampa
PDX,TPA,20,-122.5979996,45.58869934,-82.533203125,27.975500106811523,OR,FL,Portland,Tampa
SJC,TPA,91,-121.929001,37.362598,-82.533203125,27.975500106811523,CA,FL,San Jose,Tampa
SYR,TPA,209,-76.1063003540039,43.11119842529297,-82.533203125,27.975500106811523,NY,FL,Syracuse,Tampa
GRB,TPA,141,-88.12960052490234,44.48509979248047,-82.533203125,27.975500106811523,WI,FL,Green Bay,Tampa
TYS,TPA,119,-83.99400329999997,35.81100082,-82.533203125,27.975500106811523,TN,FL,Knoxville,Tampa
PIT,TPA,102938,-80.23290253,40.49150085,-82.533203125,27.975500106811523,PA,FL,Pittsburgh,Tampa
PVD,TPA,106706,-71.42040300000002,41.732601,-82.533203125,27.975500106811523,RI,FL,Providence,Tampa
AGC,TPA,5,-79.9301986694336,40.354400634765625,-82.533203125,27.975500106811523,PA,FL,Pittsburgh,Tampa
BHM,TPA,89032,-86.75350189,33.56290054,-82.533203125,27.975500106811523,AL,FL,Birmingham,Tampa
DSM,TPA,420,-93.66310119628906,41.53400039672852,-82.533203125,27.975500106811523,IA,FL,Des Moines,Tampa
CVG,TPA,102579,-84.6678009033,39.0488014221,-82.533203125,27.975500106811523,OH,FL,Cincinnati,Tampa
STL,TPA,104802,-90.370003,38.748697,-82.533203125,27.975500106811523,MO,FL,St. Louis,Tampa
CHS,TPA,280,-80.04049683,32.89860153,-82.533203125,27.975500106811523,SC,FL,Charleston,Tampa
MHT,TPA,81750,-71.435699,42.932598,-82.533203125,27.975500106811523,NH,FL,Manchester,Tampa
CKB,TPA,56,-80.2281036377,39.2966003418,-82.533203125,27.975500106811523,WV,FL,Clarksburg,Tampa
GSO,TPA,44,-79.93730163574219,36.097801208496094,-82.533203125,27.975500106811523,NC,FL,Greensboro,Tampa
MKE,TPA,63257,-87.89659881591797,42.94720077514648,-82.533203125,27.975500106811523,WI,FL,Milwaukee,Tampa
LAS,TPA,141872,-115.1520004,36.08010101,-82.533203125,27.975500106811523,NV,FL,Las Vegas,Tampa
ROC,TPA,35735,-77.67240142822266,43.118900299072266,-82.533203125,27.975500106811523,NY,FL,Rochester,Tampa
BNA,TPA,156534,-86.6781997680664,36.1245002746582,-82.533203125,27.975500106811523,TN,FL,Nashville,Tampa
PNS,TPA,23299,-87.1866,30.4734,-82.533203125,27.975500106811523,FL,FL,Pensacola,Tampa
LEX,TPA,140,-84.60590362548828,38.0364990234375,-82.533203125,27.975500106811523,KY,FL,Lexington,Tampa
SAN,TPA,119,-117.190002441,32.7336006165,-82.533203125,27.975500106811523,CA,FL,San Diego,Tampa
PBI,TPA,120455,-80.09559631347656,26.68320083618164,-82.533203125,27.975500106811523,FL,FL,West Palm Beach,Tampa
SLC,TPA,47553,-111.97799682617188,40.78839874267578,-82.533203125,27.975500106811523,UT,FL,Salt Lake City,Tampa
FLL,TPA,362687,-80.152702,26.072599,-82.533203125,27.975500106811523,FL,FL,Fort Lauderdale,Tampa
PHL,TPA,378238,-75.24109649658203,39.87189865112305,-82.533203125,27.975500106811523,PA,FL,Philadelphia,Tampa
JAX,TPA,89258,-81.68789672851562,30.49410057067871,-82.533203125,27.975500106811523,FL,FL,Jacksonville,Tampa
ACY,TPA,48290,-74.57720184326172,39.45759963989258,-82.533203125,27.975500106811523,NJ,FL,Atlantic City,Tampa
OKC,TPA,99,-97.60070037841795,35.39310073852539,-82.533203125,27.975500106811523,OK,FL,Oklahoma City,Tampa
BWG,TPA,86,-86.41970062259999,36.9645004272,-82.533203125,27.975500106811523,KY,FL,Bowling Green,Tampa
HOU,TPA,130224,-95.27890015,29.64539909,-82.533203125,27.975500106811523,TX,FL,Houston,Tampa
IAH,TPA,232613,-95.34140014648438,29.98439979553223,-82.533203125,27.975500106811523,TX,FL,Houston,Tampa
ATL,TPA,988002,-84.428101,33.6367,-82.533203125,27.975500106811523,GA,FL,Atlanta,Tampa
BUF,TPA,69204,-78.73220062,42.94049835,-82.533203125,27.975500106811523,NY,FL,Buffalo,Tampa
DTW,TPA,285282,-83.35340118408203,42.212398529052734,-82.533203125,27.975500106811523,MI,FL,Detroit,Tampa
ORD,TPA,299631,-87.9048,41.9786,-82.533203125,27.975500106811523,IL,FL,Chicago,Tampa
MDW,TPA,183291,-87.752403,41.785999,-82.533203125,27.975500106811523,IL,FL,Chicago,Tampa
ELP,TPA,781,-106.37799840000002,31.80719948,-82.533203125,27.975500106811523,TX,FL,El Paso,Tampa
PHX,TPA,134505,-112.01200103759766,33.43429946899414,-82.533203125,27.975500106811523,AZ,FL,Phoenix,Tampa
COU,TPA,192,-92.219597,38.8181,-82.533203125,27.975500106811523,MO,FL,Columbia,Tampa
RDU,TPA,103885,-78.7874984741211,35.877601623535156,-82.533203125,27.975500106811523,NC,FL,Raleigh,Tampa
ROA,TPA,573,-79.975403,37.3255,-82.533203125,27.975500106811523,VA,FL,Roanoke,Tampa
CAE,TPA,134,-81.11949920654297,33.93880081176758,-82.533203125,27.975500106811523,SC,FL,Columbia,Tampa
SEA,TPA,121,-122.308998,47.449001,-82.533203125,27.975500106811523,WA,FL,Seattle,Tampa
MCO,TPA,6429,-81.30899810791016,28.429399490356445,-82.533203125,27.975500106811523,FL,FL,Orlando,Tampa
MEM,TPA,87018,-89.97669982910156,35.04240036010742,-82.533203125,27.975500106811523,TN,FL,Memphis,Tampa
OAK,TPA,134,-122.221001,37.721298,-82.533203125,27.975500106811523,CA,FL,Oakland,Tampa
CMH,TPA,97660,-82.891899,39.998001,-82.533203125,27.975500106811523,OH,FL,Columbus,Tampa
BDL,TPA,120523,-72.68319702149999,41.9388999939,-82.533203125,27.975500106811523,CT,FL,Hartford,Tampa
EYW,TPA,25514,-81.75959777832031,24.556100845336914,-82.533203125,27.975500106811523,FL,FL,Key West,Tampa
GPT,TPA,33344,-89.07009887695312,30.40730094909668,-82.533203125,27.975500106811523,MS,FL,Gulfport,Tampa
DAY,TPA,19704,-84.21939849853516,39.90240097045898,-82.533203125,27.975500106811523,OH,FL,Dayton,Tampa
BOS,TPA,187424,-71.00520325,42.36429977,-82.533203125,27.975500106811523,MA,FL,Boston,Tampa
DFW,TPA,316042,-97.038002,32.896801,-82.533203125,27.975500106811523,TX,FL,Dallas,Tampa
APF,TPA,1680,-81.7752990723,26.1525993347,-82.533203125,27.975500106811523,FL,FL,Naples,Tampa
AUS,TPA,37366,-97.6698989868164,30.194499969482425,-82.533203125,27.975500106811523,TX,FL,Austin,Tampa
MIA,TPA,224750,-80.29060363769531,25.79319953918457,-82.533203125,27.975500106811523,FL,FL,Miami,Tampa
CAK,TPA,37395,-81.44219970703125,40.916099548339844,-82.533203125,27.975500106811523,OH,FL,Akron,Tampa
ALB,TPA,41505,-73.80169677734375,42.74829864501953,-82.533203125,27.975500106811523,NY,FL,Albany,Tampa
FNT,TPA,21390,-83.74359893798828,42.96540069580078,-82.533203125,27.975500106811523,MI,FL,Flint,Tampa
ITO,TPA,11,-155.04800415039062,19.721399307250977,-82.533203125,27.975500106811523,HI,FL,Hilo,Tampa
OMA,TPA,21,-95.894096,41.3032,-82.533203125,27.975500106811523,NE,FL,Omaha,Tampa
TUL,TPA,74,-95.88809967041016,36.19839859008789,-82.533203125,27.975500106811523,OK,FL,Tulsa,Tampa
EWR,TPA,344302,-74.168701171875,40.69250106811523,-82.533203125,27.975500106811523,NJ,FL,Newark,Tampa
FOE,TPA,131,-95.6635971069,38.9509010315,-82.533203125,27.975500106811523,KS,FL,Topeka,Tampa
STL,TUL,94091,-90.370003,38.748697,-95.88809967041016,36.19839859008789,MO,OK,St. Louis,Tulsa
CVG,TUL,33655,-84.6678009033,39.0488014221,-95.88809967041016,36.19839859008789,OH,OK,Cincinnati,Tulsa
FSM,TUL,35,-94.36740112304688,35.33660125732422,-95.88809967041016,36.19839859008789,AR,OK,Fort Smith,Tulsa
MHT,TUL,134,-71.435699,42.932598,-95.88809967041016,36.19839859008789,NH,OK,Manchester,Tulsa
GSO,TUL,135,-79.93730163574219,36.097801208496094,-95.88809967041016,36.19839859008789,NC,OK,Greensboro,Tulsa
BHM,TUL,414,-86.75350189,33.56290054,-95.88809967041016,36.19839859008789,AL,OK,Birmingham,Tulsa
MDT,TUL,48,-76.7633972168,40.1935005188,-95.88809967041016,36.19839859008789,PA,OK,Harrisburg,Tulsa
PIT,TUL,61,-80.23290253,40.49150085,-95.88809967041016,36.19839859008789,PA,OK,Pittsburgh,Tulsa
LAS,TUL,56236,-115.1520004,36.08010101,-95.88809967041016,36.19839859008789,NV,OK,Las Vegas,Tulsa
BNA,TUL,449,-86.6781997680664,36.1245002746582,-95.88809967041016,36.19839859008789,TN,OK,Nashville,Tulsa
MKE,TUL,26,-87.89659881591797,42.94720077514648,-95.88809967041016,36.19839859008789,WI,OK,Milwaukee,Tulsa
SAN,TUL,8811,-117.190002441,32.7336006165,-95.88809967041016,36.19839859008789,CA,OK,San Diego,Tulsa
SLC,TUL,25881,-111.97799682617188,40.78839874267578,-95.88809967041016,36.19839859008789,UT,OK,Salt Lake City,Tulsa
COS,TUL,41,-104.700996,38.805801,-95.88809967041016,36.19839859008789,CO,OK,Colorado Springs,Tulsa
PBI,TUL,124,-80.09559631347656,26.68320083618164,-95.88809967041016,36.19839859008789,FL,OK,West Palm Beach,Tulsa
FLL,TUL,54,-80.152702,26.072599,-95.88809967041016,36.19839859008789,FL,OK,Fort Lauderdale,Tulsa
PHL,TUL,263,-75.24109649658203,39.87189865112305,-95.88809967041016,36.19839859008789,PA,OK,Philadelphia,Tulsa
OKC,TUL,308,-97.60070037841795,35.39310073852539,-95.88809967041016,36.19839859008789,OK,OK,Oklahoma City,Tulsa
IND,TUL,256,-86.294403,39.7173,-95.88809967041016,36.19839859008789,IN,OK,Indianapolis,Tulsa
SFO,TUL,140,-122.375,37.61899948120117,-95.88809967041016,36.19839859008789,CA,OK,San Francisco,Tulsa
CLE,TUL,9243,-81.8498001099,41.411701202399996,-95.88809967041016,36.19839859008789,OH,OK,Cleveland,Tulsa
BWI,TUL,48,-76.668297,39.1754,-95.88809967041016,36.19839859008789,MD,OK,Baltimore,Tulsa
JFK,TUL,235,-73.7789,40.639801,-95.88809967041016,36.19839859008789,NY,OK,New York,Tulsa
PDX,TUL,138,-122.5979996,45.58869934,-95.88809967041016,36.19839859008789,OR,OK,Portland,Tulsa
SJC,TUL,132,-121.929001,37.362598,-95.88809967041016,36.19839859008789,CA,OK,San Jose,Tulsa
LGA,TUL,579,-73.87259674,40.77719879,-95.88809967041016,36.19839859008789,NY,OK,New York,Tulsa
LAF,TUL,68,-86.93689727783203,40.41230010986328,-95.88809967041016,36.19839859008789,IN,OK,Lafayette,Tulsa
PHX,TUL,91696,-112.01200103759766,33.43429946899414,-95.88809967041016,36.19839859008789,AZ,OK,Phoenix,Tulsa
AMA,TUL,247,-101.706001,35.219398,-95.88809967041016,36.19839859008789,TX,OK,Amarillo,Tulsa
ICT,TUL,192,-97.433098,37.649899,-95.88809967041016,36.19839859008789,KS,OK,Wichita,Tulsa
RDU,TUL,125,-78.7874984741211,35.877601623535156,-95.88809967041016,36.19839859008789,NC,OK,Raleigh,Tulsa
MEM,TUL,46803,-89.97669982910156,35.04240036010742,-95.88809967041016,36.19839859008789,TN,OK,Memphis,Tulsa
IAH,TUL,147555,-95.34140014648438,29.98439979553223,-95.88809967041016,36.19839859008789,TX,OK,Houston,Tulsa
ISO,TUL,327,-77.60880279540002,35.331401825,-95.88809967041016,36.19839859008789,NC,OK,Kinston,Tulsa
HOU,TUL,105185,-95.27890015,29.64539909,-95.88809967041016,36.19839859008789,TX,OK,Houston,Tulsa
MCO,TUL,537,-81.30899810791016,28.429399490356445,-95.88809967041016,36.19839859008789,FL,OK,Orlando,Tulsa
OAK,TUL,38,-122.221001,37.721298,-95.88809967041016,36.19839859008789,CA,OK,Oakland,Tulsa
JAN,TUL,137,-90.0758972168,32.3111991882,-95.88809967041016,36.19839859008789,MS,OK,Jackson,Tulsa
MSN,TUL,29,-89.3375015258789,43.13990020751953,-95.88809967041016,36.19839859008789,WI,OK,Madison,Tulsa
SFB,TUL,121,-81.23750305175781,28.7775993347168,-95.88809967041016,36.19839859008789,FL,OK,Orlando,Tulsa
GPT,TUL,213,-89.07009887695312,30.40730094909668,-95.88809967041016,36.19839859008789,MS,OK,Gulfport,Tulsa
CMH,TUL,39,-82.891899,39.998001,-95.88809967041016,36.19839859008789,OH,OK,Columbus,Tulsa
BDL,TUL,143,-72.68319702149999,41.9388999939,-95.88809967041016,36.19839859008789,CT,OK,Hartford,Tulsa
DFW,TUL,293715,-97.038002,32.896801,-95.88809967041016,36.19839859008789,TX,OK,Dallas,Tulsa
DAL,TUL,198543,-96.851799,32.847099,-95.88809967041016,36.19839859008789,TX,OK,Dallas,Tulsa
BOS,TUL,389,-71.00520325,42.36429977,-95.88809967041016,36.19839859008789,MA,OK,Boston,Tulsa
BFM,TUL,363,-88.06809997559998,30.62680053710001,-95.88809967041016,36.19839859008789,AL,OK,Mobile,Tulsa
LAW,TUL,42,-98.4166030884,34.5676994324,-95.88809967041016,36.19839859008789,OK,OK,Lawton,Tulsa
MIA,TUL,508,-80.29060363769531,25.79319953918457,-95.88809967041016,36.19839859008789,FL,OK,Miami,Tulsa
AUS,TUL,1849,-97.6698989868164,30.194499969482425,-95.88809967041016,36.19839859008789,TX,OK,Austin,Tulsa
RNO,TUL,580,-119.76799774169922,39.49909973144531,-95.88809967041016,36.19839859008789,NV,OK,Reno,Tulsa
OMA,TUL,141,-95.894096,41.3032,-95.88809967041016,36.19839859008789,NE,OK,Omaha,Tulsa
TPA,TUL,270,-82.533203125,27.975500106811523,-95.88809967041016,36.19839859008789,FL,OK,Tampa,Tulsa
EWR,TUL,13120,-74.168701171875,40.69250106811523,-95.88809967041016,36.19839859008789,NJ,OK,Newark,Tulsa
TUS,TUL,183,-110.94100189208984,32.116100311279304,-95.88809967041016,36.19839859008789,AZ,OK,Tucson,Tulsa
ATL,TUL,84645,-84.428101,33.6367,-95.88809967041016,36.19839859008789,GA,OK,Atlanta,Tulsa
BUF,TUL,136,-78.73220062,42.94049835,-95.88809967041016,36.19839859008789,NY,OK,Buffalo,Tulsa
ORD,TUL,146741,-87.9048,41.9786,-95.88809967041016,36.19839859008789,IL,OK,Chicago,Tulsa
ELP,TUL,121,-106.37799840000002,31.80719948,-95.88809967041016,36.19839859008789,TX,OK,El Paso,Tulsa
DTW,TUL,30688,-83.35340118408203,42.212398529052734,-95.88809967041016,36.19839859008789,MI,OK,Detroit,Tulsa
MDW,TUL,117,-87.752403,41.785999,-95.88809967041016,36.19839859008789,IL,OK,Chicago,Tulsa
LAX,TUL,5080,-118.407997,33.942501,-95.88809967041016,36.19839859008789,CA,OK,Los Angeles,Tulsa
MSY,TUL,149,-90.25800323486328,29.99340057373047,-95.88809967041016,36.19839859008789,LA,OK,New Orleans,Tulsa
MSP,TUL,26928,-93.221802,44.882,-95.88809967041016,36.19839859008789,MN,OK,Minneapolis,Tulsa
SAT,TUL,1778,-98.469803,29.533701,-95.88809967041016,36.19839859008789,TX,OK,San Antonio,Tulsa
LIT,TUL,320,-92.22429656979999,34.729400634799994,-95.88809967041016,36.19839859008789,AR,OK,Little Rock,Tulsa
BTR,TUL,42,-91.149597,30.533199,-95.88809967041016,36.19839859008789,LA,OK,Baton Rouge,Tulsa
MCI,TUL,79222,-94.713898,39.2976,-95.88809967041016,36.19839859008789,MO,OK,Kansas City,Tulsa
IAD,TUL,656,-77.45580292,38.94449997,-95.88809967041016,36.19839859008789,DC,OK,Washington,Tulsa
SHV,TUL,116,-93.8256,32.446602,-95.88809967041016,36.19839859008789,LA,OK,Shreveport,Tulsa
SMF,TUL,7983,-121.59100341796876,38.69540023803711,-95.88809967041016,36.19839859008789,CA,OK,Sacramento,Tulsa
DCA,TUL,197,-77.037697,38.8521,-95.88809967041016,36.19839859008789,DC,OK,Washington,Tulsa
ABQ,TUL,7394,-106.609001,35.040199,-95.88809967041016,36.19839859008789,NM,OK,Albuquerque,Tulsa
XNA,TUL,129,-94.306801,36.281898,-95.88809967041016,36.19839859008789,AR,OK,Fayetteville,Tulsa
CLL,TYR,57,-96.36380005,30.58860016,-95.40239715576172,32.35409927368164,TX,TX,College Station,Tyler
SHV,TYR,50,-93.8256,32.446602,-95.40239715576172,32.35409927368164,LA,TX,Shreveport,Tyler
BTR,TYR,164,-91.149597,30.533199,-95.40239715576172,32.35409927368164,LA,TX,Baton Rouge,Tyler
LIT,TYR,134,-92.22429656979999,34.729400634799994,-95.40239715576172,32.35409927368164,AR,TX,Little Rock,Tyler
TYS,TYR,146,-83.99400329999997,35.81100082,-95.40239715576172,32.35409927368164,TN,TX,Knoxville,Tyler
LFT,TYR,49,-91.98760223,30.20529938,-95.40239715576172,32.35409927368164,LA,TX,Lafayette,Tyler
SAV,TYR,39,-81.20210266,32.12760162,-95.40239715576172,32.35409927368164,GA,TX,Savannah,Tyler
CLE,TYR,69,-81.8498001099,41.411701202399996,-95.40239715576172,32.35409927368164,OH,TX,Cleveland,Tyler
IAH,TYR,36172,-95.34140014648438,29.98439979553223,-95.40239715576172,32.35409927368164,TX,TX,Houston,Tyler
GRK,TYR,41,-97.8289031982,31.067199706999997,-95.40239715576172,32.35409927368164,TX,TX,Killeen,Tyler
HOU,TYR,48,-95.27890015,29.64539909,-95.40239715576172,32.35409927368164,TX,TX,Houston,Tyler
JAN,TYR,78,-90.0758972168,32.3111991882,-95.40239715576172,32.35409927368164,MS,TX,Jackson,Tyler
GGG,TYR,34,-94.71150207519531,32.38399887084961,-95.40239715576172,32.35409927368164,TX,TX,Longview,Tyler
CMH,TYR,43,-82.891899,39.998001,-95.40239715576172,32.35409927368164,OH,TX,Columbus,Tyler
CAE,TYR,56,-81.11949920654297,33.93880081176758,-95.40239715576172,32.35409927368164,SC,TX,Columbia,Tyler
PNS,TYR,171,-87.1866,30.4734,-95.40239715576172,32.35409927368164,FL,TX,Pensacola,Tyler
GSP,TYR,87,-82.2189025879,34.895698547399995,-95.40239715576172,32.35409927368164,SC,TX,Greenville,Tyler
CHS,TYR,132,-80.04049683,32.89860153,-95.40239715576172,32.35409927368164,SC,TX,Charleston,Tyler
HSV,TYR,45,-86.775100708008,34.637199401855,-95.40239715576172,32.35409927368164,AL,TX,Huntsville,Tyler
CVG,TYR,42,-84.6678009033,39.0488014221,-95.40239715576172,32.35409927368164,OH,TX,Cincinnati,Tyler
FWA,TYR,49,-85.19509888,40.97850037,-95.40239715576172,32.35409927368164,IN,TX,Fort Wayne,Tyler
MDT,TYR,46,-76.7633972168,40.1935005188,-95.40239715576172,32.35409927368164,PA,TX,Harrisburg,Tyler
DFW,TYR,37227,-97.038002,32.896801,-95.40239715576172,32.35409927368164,TX,TX,Dallas,Tyler
MLU,TYR,14,-92.0376968383789,32.51089859008789,-95.40239715576172,32.35409927368164,LA,TX,Monroe,Tyler
LRD,TYR,47,-99.46160125732422,27.543800354003906,-95.40239715576172,32.35409927368164,TX,TX,Laredo,Tyler
MCN,ABY,48,-83.64920043945312,32.692798614501946,-84.19450378417969,31.535499572753906,GA,GA,Macon,Albany
ATL,ABY,38164,-84.428101,33.6367,-84.19450378417969,31.535499572753906,GA,GA,Atlanta,Albany
BUF,ALB,1683,-78.73220062,42.94049835,-73.80169677734375,42.74829864501953,NY,NY,Buffalo,Albany
ATL,ALB,71840,-84.428101,33.6367,-73.80169677734375,42.74829864501953,GA,NY,Atlanta,Albany
DTW,ALB,95843,-83.35340118408203,42.212398529052734,-73.80169677734375,42.74829864501953,MI,NY,Detroit,Albany
ORD,ALB,148155,-87.9048,41.9786,-73.80169677734375,42.74829864501953,IL,NY,Chicago,Albany
MDW,ALB,63953,-87.752403,41.785999,-73.80169677734375,42.74829864501953,IL,NY,Chicago,Albany
YIP,ALB,37,-83.53040314,42.23789978,-73.80169677734375,42.74829864501953,MI,NY,Detroit,Albany
PVD,ALB,63,-71.42040300000002,41.732601,-73.80169677734375,42.74829864501953,RI,NY,Providence,Albany
PIT,ALB,172,-80.23290253,40.49150085,-73.80169677734375,42.74829864501953,PA,NY,Pittsburgh,Albany
CVG,ALB,42682,-84.6678009033,39.0488014221,-73.80169677734375,42.74829864501953,OH,NY,Cincinnati,Albany
STL,ALB,93,-90.370003,38.748697,-73.80169677734375,42.74829864501953,MO,NY,St. Louis,Albany
ART,ALB,510,-76.02169799804688,43.99190139770508,-73.80169677734375,42.74829864501953,NY,NY,Watertown,Albany
MHT,ALB,309,-71.435699,42.932598,-73.80169677734375,42.74829864501953,NH,NY,Manchester,Albany
BTV,ALB,76,-73.15329742429998,44.471900939899996,-73.80169677734375,42.74829864501953,VT,NY,Burlington,Albany
GSO,ALB,43,-79.93730163574219,36.097801208496094,-73.80169677734375,42.74829864501953,NC,NY,Greensboro,Albany
CHS,ALB,49,-80.04049683,32.89860153,-73.80169677734375,42.74829864501953,SC,NY,Charleston,Albany
DSM,ALB,39,-93.66310119628906,41.53400039672852,-73.80169677734375,42.74829864501953,IA,NY,Des Moines,Albany
BDR,ALB,1,-73.1261978149414,41.16350173950195,-73.80169677734375,42.74829864501953,CT,NY,Bridgeport,Albany
OGS,ALB,574,-75.46549987790002,44.681900024399994,-73.80169677734375,42.74829864501953,NY,NY,Ogdensburg,Albany
LAS,ALB,43226,-115.1520004,36.08010101,-73.80169677734375,42.74829864501953,NV,NY,Las Vegas,Albany
BNA,ALB,104,-86.6781997680664,36.1245002746582,-73.80169677734375,42.74829864501953,TN,NY,Nashville,Albany
MKE,ALB,88,-87.89659881591797,42.94720077514648,-73.80169677734375,42.74829864501953,WI,NY,Milwaukee,Albany
STC,ALB,37,-94.05989837646484,45.54660034179688,-73.80169677734375,42.74829864501953,MN,NY,St. Cloud,Albany
ROC,ALB,140,-77.67240142822266,43.118900299072266,-73.80169677734375,42.74829864501953,NY,NY,Rochester,Albany
BOS,ALB,3445,-71.00520325,42.36429977,-73.80169677734375,42.74829864501953,MA,NY,Boston,Albany
DFW,ALB,229,-97.038002,32.896801,-73.80169677734375,42.74829864501953,TX,NY,Dallas,Albany
TPA,ALB,44046,-82.533203125,27.975500106811523,-73.80169677734375,42.74829864501953,FL,NY,Tampa,Albany
AUO,ALB,3,-85.433998,32.615101,-73.80169677734375,42.74829864501953,AL,NY,Auburn,Albany
AUS,ALB,6,-97.6698989868164,30.194499969482425,-73.80169677734375,42.74829864501953,TX,NY,Austin,Albany
BGR,ALB,39,-68.82810211181639,44.80739974975586,-73.80169677734375,42.74829864501953,ME,NY,Bangor,Albany
TUL,ALB,46,-95.88809967041016,36.19839859008789,-73.80169677734375,42.74829864501953,OK,NY,Tulsa,Albany
EWR,ALB,55636,-74.168701171875,40.69250106811523,-73.80169677734375,42.74829864501953,NJ,NY,Newark,Albany
XNA,ALB,41,-94.306801,36.281898,-73.80169677734375,42.74829864501953,AR,NY,Fayetteville,Albany
IAD,ALB,62035,-77.45580292,38.94449997,-73.80169677734375,42.74829864501953,DC,NY,Washington,Albany
DCA,ALB,67602,-77.037697,38.8521,-73.80169677734375,42.74829864501953,DC,NY,Washington,Albany
MCI,ALB,44,-94.713898,39.2976,-73.80169677734375,42.74829864501953,MO,NY,Kansas City,Albany
LAX,ALB,642,-118.407997,33.942501,-73.80169677734375,42.74829864501953,CA,NY,Los Angeles,Albany
MSP,ALB,16057,-93.221802,44.882,-73.80169677734375,42.74829864501953,MN,NY,Minneapolis,Albany
CLE,ALB,48108,-81.8498001099,41.411701202399996,-73.80169677734375,42.74829864501953,OH,NY,Cleveland,Albany
CLT,ALB,104428,-80.94309997558594,35.2140007019043,-73.80169677734375,42.74829864501953,NC,NY,Charlotte,Albany
BWI,ALB,229191,-76.668297,39.1754,-73.80169677734375,42.74829864501953,MD,NY,Baltimore,Albany
JFK,ALB,30976,-73.7789,40.639801,-73.80169677734375,42.74829864501953,NY,NY,New York,Albany
LGA,ALB,10285,-73.87259674,40.77719879,-73.80169677734375,42.74829864501953,NY,NY,New York,Albany
SAV,ALB,11,-81.20210266,32.12760162,-73.80169677734375,42.74829864501953,GA,NY,Savannah,Albany
PWM,ALB,138,-70.309303,43.646198,-73.80169677734375,42.74829864501953,ME,NY,Portland,Albany
SYR,ALB,155,-76.1063003540039,43.11119842529297,-73.80169677734375,42.74829864501953,NY,NY,Syracuse,Albany
FLL,ALB,4451,-80.152702,26.072599,-73.80169677734375,42.74829864501953,FL,NY,Fort Lauderdale,Albany
SLC,ALB,164,-111.97799682617188,40.78839874267578,-73.80169677734375,42.74829864501953,UT,NY,Salt Lake City,Albany
PBI,ALB,114,-80.09559631347656,26.68320083618164,-73.80169677734375,42.74829864501953,FL,NY,West Palm Beach,Albany
CHO,ALB,61,-78.4529037475586,38.13859939575195,-73.80169677734375,42.74829864501953,VA,NY,Charlottesville,Albany
PHL,ALB,97266,-75.24109649658203,39.87189865112305,-73.80169677734375,42.74829864501953,PA,NY,Philadelphia,Albany
ACY,ALB,2131,-74.57720184326172,39.45759963989258,-73.80169677734375,42.74829864501953,NJ,NY,Atlantic City,Albany
SFO,ALB,256,-122.375,37.61899948120117,-73.80169677734375,42.74829864501953,CA,NY,San Francisco,Albany
MCO,ALB,106345,-81.30899810791016,28.429399490356445,-73.80169677734375,42.74829864501953,FL,NY,Orlando,Albany
MEM,ALB,34,-89.97669982910156,35.04240036010742,-73.80169677734375,42.74829864501953,TN,NY,Memphis,Albany
MSN,ALB,28,-89.3375015258789,43.13990020751953,-73.80169677734375,42.74829864501953,WI,NY,Madison,Albany
BDL,ALB,963,-72.68319702149999,41.9388999939,-73.80169677734375,42.74829864501953,CT,NY,Hartford,Albany
CMH,ALB,2,-82.891899,39.998001,-73.80169677734375,42.74829864501953,OH,NY,Columbus,Albany
PHX,ALB,265,-112.01200103759766,33.43429946899414,-73.80169677734375,42.74829864501953,AZ,NY,Phoenix,Albany
RDU,ALB,117,-78.7874984741211,35.877601623535156,-73.80169677734375,42.74829864501953,NC,NY,Raleigh,Albany
DTW,APN,12177,-83.35340118408203,42.212398529052734,-83.56030273,45.07809829999999,MI,MI,Detroit,Alpena
FYV,AHN,41,-94.17009735107422,36.00510025024414,-83.32630157470703,33.94860076904297,AR,GA,Fayetteville,Athens
TCL,AHN,37,-87.611396789551,33.220600128174,-83.32630157470703,33.94860076904297,AL,GA,Tuscaloosa,Athens
GNV,AHN,113,-82.27179718020001,29.6900997162,-83.32630157470703,33.94860076904297,FL,GA,Gainesville,Athens
BTR,AHN,66,-91.149597,30.533199,-83.32630157470703,33.94860076904297,LA,GA,Baton Rouge,Athens
DCA,AHN,45,-77.037697,38.8521,-83.32630157470703,33.94860076904297,DC,GA,Washington,Athens
MSY,AHN,90,-90.25800323486328,29.99340057373047,-83.32630157470703,33.94860076904297,LA,GA,New Orleans,Athens
OKC,AHN,31,-97.60070037841795,35.39310073852539,-83.32630157470703,33.94860076904297,OK,GA,Oklahoma City,Athens
LEX,AHN,138,-84.60590362548828,38.0364990234375,-83.32630157470703,33.94860076904297,KY,GA,Lexington,Athens
BNA,AHN,124,-86.6781997680664,36.1245002746582,-83.32630157470703,33.94860076904297,TN,GA,Nashville,Athens
TUS,AHN,46,-110.94100189208984,32.116100311279304,-83.32630157470703,33.94860076904297,AZ,GA,Tucson,Athens
MCN,AHN,11,-83.64920043945312,32.692798614501946,-83.32630157470703,33.94860076904297,GA,GA,Macon,Athens
GTR,AHN,62,-88.59140014649998,33.450298309299995,-83.32630157470703,33.94860076904297,MS,GA,Columbus,Athens
ATL,AHN,764,-84.428101,33.6367,-83.32630157470703,33.94860076904297,GA,GA,Atlanta,Athens
CLT,AHN,1671,-80.94309997558594,35.2140007019043,-83.32630157470703,33.94860076904297,NC,GA,Charlotte,Athens
TYS,AHN,67,-83.99400329999997,35.81100082,-83.32630157470703,33.94860076904297,TN,GA,Knoxville,Athens
OKC,AUO,1,-97.60070037841795,35.39310073852539,-85.433998,32.615101,OK,AL,Oklahoma City,Auburn
LAS,AUS,134624,-115.1520004,36.08010101,-97.6698989868164,30.194499969482425,NV,TX,Las Vegas,Austin
BNA,AUS,68899,-86.6781997680664,36.1245002746582,-97.6698989868164,30.194499969482425,TN,TX,Nashville,Austin
SAN,AUS,82446,-117.190002441,32.7336006165,-97.6698989868164,30.194499969482425,CA,TX,San Diego,Austin
SNA,AUS,25338,-117.8679962,33.67570114,-97.6698989868164,30.194499969482425,CA,TX,Santa Ana,Austin
LEX,AUS,252,-84.60590362548828,38.0364990234375,-97.6698989868164,30.194499969482425,KY,TX,Lexington,Austin
MHK,AUS,69,-96.6707992553711,39.14099884033203,-97.6698989868164,30.194499969482425,KS,TX,Manhattan,Austin
MKE,AUS,124,-87.89659881591797,42.94720077514648,-97.6698989868164,30.194499969482425,WI,TX,Milwaukee,Austin
STL,AUS,28123,-90.370003,38.748697,-97.6698989868164,30.194499969482425,MO,TX,St. Louis,Austin
CVG,AUS,31269,-84.6678009033,39.0488014221,-97.6698989868164,30.194499969482425,OH,TX,Cincinnati,Austin
BHM,AUS,615,-86.75350189,33.56290054,-97.6698989868164,30.194499969482425,AL,TX,Birmingham,Austin
MGM,AUS,24,-86.39399719,32.30059814,-97.6698989868164,30.194499969482425,AL,TX,Montgomery,Austin
DSM,AUS,39,-93.66310119628906,41.53400039672852,-97.6698989868164,30.194499969482425,IA,TX,Des Moines,Austin
ATL,AUS,212254,-84.428101,33.6367,-97.6698989868164,30.194499969482425,GA,TX,Atlanta,Austin
IAH,AUS,365941,-95.34140014648438,29.98439979553223,-97.6698989868164,30.194499969482425,TX,TX,Houston,Austin
HOU,AUS,187585,-95.27890015,29.64539909,-97.6698989868164,30.194499969482425,TX,TX,Houston,Austin
ORD,AUS,233513,-87.9048,41.9786,-97.6698989868164,30.194499969482425,IL,TX,Chicago,Austin
ELP,AUS,116264,-106.37799840000002,31.80719948,-97.6698989868164,30.194499969482425,TX,TX,El Paso,Austin
DTW,AUS,31510,-83.35340118408203,42.212398529052734,-97.6698989868164,30.194499969482425,MI,TX,Detroit,Austin
MDW,AUS,59063,-87.752403,41.785999,-97.6698989868164,30.194499969482425,IL,TX,Chicago,Austin
DAL,AUS,426067,-96.851799,32.847099,-97.6698989868164,30.194499969482425,TX,TX,Dallas,Austin
DFW,AUS,597588,-97.038002,32.896801,-97.6698989868164,30.194499969482425,TX,TX,Dallas,Austin
BOS,AUS,33207,-71.00520325,42.36429977,-97.6698989868164,30.194499969482425,MA,TX,Boston,Austin
FAT,AUS,133,-119.718002,36.776199,-97.6698989868164,30.194499969482425,CA,TX,Fresno,Austin
LRD,AUS,62,-99.46160125732422,27.543800354003906,-97.6698989868164,30.194499969482425,TX,TX,Laredo,Austin
TPA,AUS,39084,-82.533203125,27.975500106811523,-97.6698989868164,30.194499969482425,FL,TX,Tampa,Austin
TUL,AUS,2630,-95.88809967041016,36.19839859008789,-97.6698989868164,30.194499969482425,OK,TX,Tulsa,Austin
MIA,AUS,426,-80.29060363769531,25.79319953918457,-97.6698989868164,30.194499969482425,FL,TX,Miami,Austin
RNO,AUS,823,-119.76799774169922,39.49909973144531,-97.6698989868164,30.194499969482425,NV,TX,Reno,Austin
OMA,AUS,142,-95.894096,41.3032,-97.6698989868164,30.194499969482425,NE,TX,Omaha,Austin
EWR,AUS,84002,-74.168701171875,40.69250106811523,-97.6698989868164,30.194499969482425,NJ,TX,Newark,Austin
TUS,AUS,8624,-110.94100189208984,32.116100311279304,-97.6698989868164,30.194499969482425,AZ,TX,Tucson,Austin
TUP,AUS,29,-88.7698974609375,34.26810073852539,-97.6698989868164,30.194499969482425,MS,TX,Tupelo,Austin
FOE,AUS,86,-95.6635971069,38.9509010315,-97.6698989868164,30.194499969482425,KS,TX,Topeka,Austin
OKC,AUS,3064,-97.60070037841795,35.39310073852539,-97.6698989868164,30.194499969482425,OK,TX,Oklahoma City,Austin
SFO,AUS,55751,-122.375,37.61899948120117,-97.6698989868164,30.194499969482425,CA,TX,San Francisco,Austin
JAX,AUS,7264,-81.68789672851562,30.49410057067871,-97.6698989868164,30.194499969482425,FL,TX,Jacksonville,Austin
PHL,AUS,30904,-75.24109649658203,39.87189865112305,-97.6698989868164,30.194499969482425,PA,TX,Philadelphia,Austin
IND,AUS,8049,-86.294403,39.7173,-97.6698989868164,30.194499969482425,IN,TX,Indianapolis,Austin
CRP,AUS,162,-97.5011978149414,27.77039909362793,-97.6698989868164,30.194499969482425,TX,TX,Corpus Christi,Austin
SLC,AUS,33767,-111.97799682617188,40.78839874267578,-97.6698989868164,30.194499969482425,UT,TX,Salt Lake City,Austin
FLL,AUS,41693,-80.152702,26.072599,-97.6698989868164,30.194499969482425,FL,TX,Fort Lauderdale,Austin
COS,AUS,115,-104.700996,38.805801,-97.6698989868164,30.194499969482425,CO,TX,Colorado Springs,Austin
PBI,AUS,134,-80.09559631347656,26.68320083618164,-97.6698989868164,30.194499969482425,FL,TX,West Palm Beach,Austin
MSY,AUS,16845,-90.25800323486328,29.99340057373047,-97.6698989868164,30.194499969482425,LA,TX,New Orleans,Austin
LAX,AUS,178441,-118.407997,33.942501,-97.6698989868164,30.194499969482425,CA,TX,Los Angeles,Austin
MSP,AUS,43607,-93.221802,44.882,-97.6698989868164,30.194499969482425,MN,TX,Minneapolis,Austin
SAT,AUS,2846,-98.469803,29.533701,-97.6698989868164,30.194499969482425,TX,TX,San Antonio,Austin
GRI,AUS,126,-98.30960083007812,40.96749877929688,-97.6698989868164,30.194499969482425,NE,TX,Grand Island,Austin
GRR,AUS,43,-85.52279663,42.88079834,-97.6698989868164,30.194499969482425,MI,TX,Grand Rapids,Austin
XNA,AUS,229,-94.306801,36.281898,-97.6698989868164,30.194499969482425,AR,TX,Fayetteville,Austin
LIT,AUS,503,-92.22429656979999,34.729400634799994,-97.6698989868164,30.194499969482425,AR,TX,Little Rock,Austin
IAD,AUS,45695,-77.45580292,38.94449997,-97.6698989868164,30.194499969482425,DC,TX,Washington,Austin
SJT,AUS,69,-100.49600219726562,31.35770034790039,-97.6698989868164,30.194499969482425,TX,TX,San Angelo,Austin
SWO,AUS,180,-97.08570098877001,36.161201477051,-97.6698989868164,30.194499969482425,OK,TX,Stillwater,Austin
ABQ,AUS,14715,-106.609001,35.040199,-97.6698989868164,30.194499969482425,NM,TX,Albuquerque,Austin
GNV,AUS,39,-82.27179718020001,29.6900997162,-97.6698989868164,30.194499969482425,FL,TX,Gainesville,Austin
MCI,AUS,14054,-94.713898,39.2976,-97.6698989868164,30.194499969482425,MO,TX,Kansas City,Austin
SMF,AUS,446,-121.59100341796876,38.69540023803711,-97.6698989868164,30.194499969482425,CA,TX,Sacramento,Austin
BTR,AUS,27,-91.149597,30.533199,-97.6698989868164,30.194499969482425,LA,TX,Baton Rouge,Austin
MKC,AUS,89,-94.5927963256836,39.12319946289063,-97.6698989868164,30.194499969482425,MO,TX,Kansas City,Austin
SHV,AUS,124,-93.8256,32.446602,-97.6698989868164,30.194499969482425,LA,TX,Shreveport,Austin
DCA,AUS,197,-77.037697,38.8521,-97.6698989868164,30.194499969482425,DC,TX,Washington,Austin
CLE,AUS,16644,-81.8498001099,41.411701202399996,-97.6698989868164,30.194499969482425,OH,TX,Cleveland,Austin
CLT,AUS,49092,-80.94309997558594,35.2140007019043,-97.6698989868164,30.194499969482425,NC,TX,Charlotte,Austin
BWI,AUS,79824,-76.668297,39.1754,-97.6698989868164,30.194499969482425,MD,TX,Baltimore,Austin
ANC,AUS,146,-149.99600219726562,61.174400329589844,-97.6698989868164,30.194499969482425,AK,TX,Anchorage,Austin
JFK,AUS,99822,-73.7789,40.639801,-97.6698989868164,30.194499969482425,NY,TX,New York,Austin
RIC,AUS,125,-77.3197021484375,37.50519943237305,-97.6698989868164,30.194499969482425,VA,TX,Richmond,Austin
SJC,AUS,91398,-121.929001,37.362598,-97.6698989868164,30.194499969482425,CA,TX,San Jose,Austin
PDX,AUS,983,-122.5979996,45.58869934,-97.6698989868164,30.194499969482425,OR,TX,Portland,Austin
LGA,AUS,124,-73.87259674,40.77719879,-97.6698989868164,30.194499969482425,NY,TX,New York,Austin
TYS,AUS,314,-83.99400329999997,35.81100082,-97.6698989868164,30.194499969482425,TN,TX,Knoxville,Austin
RDU,AUS,22246,-78.7874984741211,35.877601623535156,-97.6698989868164,30.194499969482425,NC,TX,Raleigh,Austin
PHX,AUS,264427,-112.01200103759766,33.43429946899414,-97.6698989868164,30.194499969482425,AZ,TX,Phoenix,Austin
AMA,AUS,263,-101.706001,35.219398,-97.6698989868164,30.194499969482425,TX,TX,Amarillo,Austin
SEA,AUS,17830,-122.308998,47.449001,-97.6698989868164,30.194499969482425,WA,TX,Seattle,Austin
CAE,AUS,45,-81.11949920654297,33.93880081176758,-97.6698989868164,30.194499969482425,SC,TX,Columbia,Austin
COU,AUS,213,-92.219597,38.8181,-97.6698989868164,30.194499969482425,MO,TX,Columbia,Austin
BPT,AUS,79,-94.02069854736328,29.9507999420166,-97.6698989868164,30.194499969482425,TX,TX,Beaumont,Austin
MSO,AUS,135,-114.0910034,46.91630173,-97.6698989868164,30.194499969482425,MT,TX,Missoula,Austin
GPT,AUS,103,-89.07009887695312,30.40730094909668,-97.6698989868164,30.194499969482425,MS,TX,Gulfport,Austin
CMH,AUS,175,-82.891899,39.998001,-97.6698989868164,30.194499969482425,OH,TX,Columbus,Austin
MCO,AUS,64905,-81.30899810791016,28.429399490356445,-97.6698989868164,30.194499969482425,FL,TX,Orlando,Austin
LBB,AUS,60211,-101.822998,33.663601,-97.6698989868164,30.194499969482425,TX,TX,Lubbock,Austin
MEM,AUS,50784,-89.97669982910156,35.04240036010742,-97.6698989868164,30.194499969482425,TN,TX,Memphis,Austin
MAF,AUS,21947,-102.2020034790039,31.9424991607666,-97.6698989868164,30.194499969482425,TX,TX,Midland,Austin
LNK,AUS,40,-96.75920104980469,40.85100173950195,-97.6698989868164,30.194499969482425,NE,TX,Lincoln,Austin
OAK,AUS,23461,-122.221001,37.721298,-97.6698989868164,30.194499969482425,CA,TX,Oakland,Austin
SFB,AUS,171,-81.23750305175781,28.7775993347168,-97.6698989868164,30.194499969482425,FL,TX,Orlando,Austin
JAN,AUS,267,-90.0758972168,32.3111991882,-97.6698989868164,30.194499969482425,MS,TX,Jackson,Austin
GRK,AUS,158,-97.8289031982,31.067199706999997,-97.6698989868164,30.194499969482425,TX,TX,Killeen,Austin
EFD,AUS,115,-95.15879821780001,29.6072998047,-97.6698989868164,30.194499969482425,TX,TX,Houston,Austin
MSP,BGR,453,-93.221802,44.882,-68.82810211181639,44.80739974975586,MN,ME,Minneapolis,Bangor
IAD,BGR,56,-77.45580292,38.94449997,-68.82810211181639,44.80739974975586,DC,ME,Washington,Bangor
DCA,BGR,539,-77.037697,38.8521,-68.82810211181639,44.80739974975586,DC,ME,Washington,Bangor
BTV,BGR,37,-73.15329742429998,44.471900939899996,-68.82810211181639,44.80739974975586,VT,ME,Burlington,Bangor
CVG,BGR,5005,-84.6678009033,39.0488014221,-68.82810211181639,44.80739974975586,OH,ME,Cincinnati,Bangor
MHT,BGR,32,-71.435699,42.932598,-68.82810211181639,44.80739974975586,NH,ME,Manchester,Bangor
DTW,BGR,30580,-83.35340118408203,42.212398529052734,-68.82810211181639,44.80739974975586,MI,ME,Detroit,Bangor
ORD,BGR,383,-87.9048,41.9786,-68.82810211181639,44.80739974975586,IL,ME,Chicago,Bangor
MDW,BGR,160,-87.752403,41.785999,-68.82810211181639,44.80739974975586,IL,ME,Chicago,Bangor
ATL,BGR,16278,-84.428101,33.6367,-68.82810211181639,44.80739974975586,GA,ME,Atlanta,Bangor
PHL,BGR,38891,-75.24109649658203,39.87189865112305,-68.82810211181639,44.80739974975586,PA,ME,Philadelphia,Bangor
SBA,BGR,6,-119.8399963,34.42620087,-68.82810211181639,44.80739974975586,CA,ME,Santa Barbara,Bangor
IND,BGR,176,-86.294403,39.7173,-68.82810211181639,44.80739974975586,IN,ME,Indianapolis,Bangor
FLL,BGR,304,-80.152702,26.072599,-68.82810211181639,44.80739974975586,FL,ME,Fort Lauderdale,Bangor
COS,BGR,67,-104.700996,38.805801,-68.82810211181639,44.80739974975586,CO,ME,Colorado Springs,Bangor
BOS,BGR,27561,-71.00520325,42.36429977,-68.82810211181639,44.80739974975586,MA,ME,Boston,Bangor
DFW,BGR,168,-97.038002,32.896801,-68.82810211181639,44.80739974975586,TX,ME,Dallas,Bangor
THV,BGR,2,-76.8730011,39.91699982,-68.82810211181639,44.80739974975586,PA,ME,York,Bangor
EWR,BGR,18689,-74.168701171875,40.69250106811523,-68.82810211181639,44.80739974975586,NJ,ME,Newark,Bangor
TCM,BGR,191,-122.475997925,47.1376991272,-68.82810211181639,44.80739974975586,WA,ME,Tacoma,Bangor
SFB,BGR,16114,-81.23750305175781,28.7775993347168,-68.82810211181639,44.80739974975586,FL,ME,Orlando,Bangor
IAH,BGR,303,-95.34140014648438,29.98439979553223,-68.82810211181639,44.80739974975586,TX,ME,Houston,Bangor
GEG,BGR,41,-117.53399658203124,47.61989974975586,-68.82810211181639,44.80739974975586,WA,ME,Spokane,Bangor
PHX,BGR,8,-112.01200103759766,33.43429946899414,-68.82810211181639,44.80739974975586,AZ,ME,Phoenix,Bangor
CLE,BGR,72,-81.8498001099,41.411701202399996,-68.82810211181639,44.80739974975586,OH,ME,Cleveland,Bangor
PWM,BGR,28,-70.309303,43.646198,-68.82810211181639,44.80739974975586,ME,ME,Portland,Bangor
JFK,BGR,12455,-73.7789,40.639801,-68.82810211181639,44.80739974975586,NY,ME,New York,Bangor
LGA,BGR,8130,-73.87259674,40.77719879,-68.82810211181639,44.80739974975586,NY,ME,New York,Bangor
ALO,BGR,132,-92.40029907226562,42.55709838867188,-68.82810211181639,44.80739974975586,IA,ME,Waterloo,Bangor
TPA,BOS,185330,-82.533203125,27.975500106811523,-71.00520325,42.36429977,FL,MA,Tampa,Boston
AUS,BOS,34751,-97.6698989868164,30.194499969482425,-71.00520325,42.36429977,TX,MA,Austin,Boston
BGR,BOS,30617,-68.82810211181639,44.80739974975586,-71.00520325,42.36429977,ME,MA,Bangor,Boston
ALB,BOS,3031,-73.80169677734375,42.74829864501953,-71.00520325,42.36429977,NY,MA,Albany,Boston
MIA,BOS,345699,-80.29060363769531,25.79319953918457,-71.00520325,42.36429977,FL,MA,Miami,Boston
CAK,BOS,42705,-81.44219970703125,40.916099548339844,-71.00520325,42.36429977,OH,MA,Akron,Boston
OPF,BOS,13,-80.278397,25.907,-71.00520325,42.36429977,FL,MA,Miami,Boston
DFW,BOS,350655,-97.038002,32.896801,-71.00520325,42.36429977,TX,MA,Dallas,Boston
DAL,BOS,51,-96.851799,32.847099,-71.00520325,42.36429977,TX,MA,Dallas,Boston
DLH,BOS,29,-92.19360351559999,46.8420982361,-71.00520325,42.36429977,MN,MA,Duluth,Boston
BOS,BOS,182,-71.00520325,42.36429977,-71.00520325,42.36429977,MA,MA,Boston,Boston
EWR,BOS,287476,-74.168701171875,40.69250106811523,-71.00520325,42.36429977,NJ,MA,Newark,Boston
MKE,BOS,123708,-87.89659881591797,42.94720077514648,-71.00520325,42.36429977,WI,MA,Milwaukee,Boston
LAS,BOS,163573,-115.1520004,36.08010101,-71.00520325,42.36429977,NV,MA,Las Vegas,Boston
BNA,BOS,6116,-86.6781997680664,36.1245002746582,-71.00520325,42.36429977,TN,MA,Nashville,Boston
ROC,BOS,42006,-77.67240142822266,43.118900299072266,-71.00520325,42.36429977,NY,MA,Rochester,Boston
SAN,BOS,83389,-117.190002441,32.7336006165,-71.00520325,42.36429977,CA,MA,San Diego,Boston
SNA,BOS,130,-117.8679962,33.67570114,-71.00520325,42.36429977,CA,MA,Santa Ana,Boston
PIT,BOS,135722,-80.23290253,40.49150085,-71.00520325,42.36429977,PA,MA,Pittsburgh,Boston
PVD,BOS,1270,-71.42040300000002,41.732601,-71.00520325,42.36429977,RI,MA,Providence,Boston
MHT,BOS,1524,-71.435699,42.932598,-71.00520325,42.36429977,NH,MA,Manchester,Boston
STL,BOS,73908,-90.370003,38.748697,-71.00520325,42.36429977,MO,MA,St. Louis,Boston
CHS,BOS,6870,-80.04049683,32.89860153,-71.00520325,42.36429977,SC,MA,Charleston,Boston
CVG,BOS,160259,-84.6678009033,39.0488014221,-71.00520325,42.36429977,OH,MA,Cincinnati,Boston
MDT,BOS,11690,-76.7633972168,40.1935005188,-71.00520325,42.36429977,PA,MA,Harrisburg,Boston
GSP,BOS,175,-82.2189025879,34.895698547399995,-71.00520325,42.36429977,SC,MA,Greenville,Boston
BDR,BOS,6,-73.1261978149414,41.16350173950195,-71.00520325,42.36429977,CT,MA,Bridgeport,Boston
DSM,BOS,125,-93.66310119628906,41.53400039672852,-71.00520325,42.36429977,IA,MA,Des Moines,Boston
BTV,BOS,18,-73.15329742429998,44.471900939899996,-71.00520325,42.36429977,VT,MA,Burlington,Boston
GSO,BOS,3297,-79.93730163574219,36.097801208496094,-71.00520325,42.36429977,NC,MA,Greensboro,Boston
IAH,BOS,206391,-95.34140014648438,29.98439979553223,-71.00520325,42.36429977,TX,MA,Houston,Boston
DTW,BOS,250054,-83.35340118408203,42.212398529052734,-71.00520325,42.36429977,MI,MA,Detroit,Boston
MDW,BOS,29283,-87.752403,41.785999,-71.00520325,42.36429977,IL,MA,Chicago,Boston
ORD,BOS,775762,-87.9048,41.9786,-71.00520325,42.36429977,IL,MA,Chicago,Boston
ATL,BOS,723048,-84.428101,33.6367,-71.00520325,42.36429977,GA,MA,Atlanta,Boston
BUF,BOS,109103,-78.73220062,42.94049835,-71.00520325,42.36429977,NY,MA,Buffalo,Boston
AUG,BOS,3245,-69.7973022461,44.320598602299995,-71.00520325,42.36429977,ME,MA,Augusta,Boston
CLT,BOS,443338,-80.94309997558594,35.2140007019043,-71.00520325,42.36429977,NC,MA,Charlotte,Boston
CLE,BOS,105842,-81.8498001099,41.411701202399996,-71.00520325,42.36429977,OH,MA,Cleveland,Boston
BWI,BOS,280737,-76.668297,39.1754,-71.00520325,42.36429977,MD,MA,Baltimore,Boston
LGA,BOS,554970,-73.87259674,40.77719879,-71.00520325,42.36429977,NY,MA,New York,Boston
SYR,BOS,14968,-76.1063003540039,43.11119842529297,-71.00520325,42.36429977,NY,MA,Syracuse,Boston
PDX,BOS,38197,-122.5979996,45.58869934,-71.00520325,42.36429977,OR,MA,Portland,Boston
JFK,BOS,473032,-73.7789,40.639801,-71.00520325,42.36429977,NY,MA,New York,Boston
SAV,BOS,5374,-81.20210266,32.12760162,-71.00520325,42.36429977,GA,MA,Savannah,Boston
RKD,BOS,5509,-69.09919739,44.06010056,-71.00520325,42.36429977,ME,MA,Rockland,Boston
RIC,BOS,69806,-77.3197021484375,37.50519943237305,-71.00520325,42.36429977,VA,MA,Richmond,Boston
SJC,BOS,28580,-121.929001,37.362598,-71.00520325,42.36429977,CA,MA,San Jose,Boston
PWM,BOS,277,-70.309303,43.646198,-71.00520325,42.36429977,ME,MA,Portland,Boston
AVP,BOS,43,-75.72339630130001,41.338500976599995,-71.00520325,42.36429977,PA,MA,Scranton,Boston
PHL,BOS,379372,-75.24109649658203,39.87189865112305,-71.00520325,42.36429977,PA,MA,Philadelphia,Boston
ACY,BOS,3096,-74.57720184326172,39.45759963989258,-71.00520325,42.36429977,NJ,MA,Atlantic City,Boston
MYR,BOS,68606,-78.9282989502,33.6796989441,-71.00520325,42.36429977,SC,MA,Myrtle Beach,Boston
JAX,BOS,35874,-81.68789672851562,30.49410057067871,-71.00520325,42.36429977,FL,MA,Jacksonville,Boston
SFO,BOS,385281,-122.375,37.61899948120117,-71.00520325,42.36429977,CA,MA,San Francisco,Boston
IND,BOS,50372,-86.294403,39.7173,-71.00520325,42.36429977,IN,MA,Indianapolis,Boston
OKC,BOS,135,-97.60070037841795,35.39310073852539,-71.00520325,42.36429977,OK,MA,Oklahoma City,Boston
PBI,BOS,185483,-80.09559631347656,26.68320083618164,-71.00520325,42.36429977,FL,MA,West Palm Beach,Boston
SLC,BOS,107010,-111.97799682617188,40.78839874267578,-71.00520325,42.36429977,UT,MA,Salt Lake City,Boston
FLL,BOS,314289,-80.152702,26.072599,-71.00520325,42.36429977,FL,MA,Fort Lauderdale,Boston
RDU,BOS,141078,-78.7874984741211,35.877601623535156,-71.00520325,42.36429977,NC,MA,Raleigh,Boston
PHX,BOS,122239,-112.01200103759766,33.43429946899414,-71.00520325,42.36429977,AZ,MA,Phoenix,Boston
SEA,BOS,124808,-122.308998,47.449001,-71.00520325,42.36429977,WA,MA,Seattle,Boston
BFI,BOS,55,-122.302001953125,47.52999877929688,-71.00520325,42.36429977,WA,MA,Seattle,Boston
GEG,BOS,145,-117.53399658203124,47.61989974975586,-71.00520325,42.36429977,WA,MA,Spokane,Boston
TTN,BOS,3,-74.8134994506836,40.27669906616211,-71.00520325,42.36429977,NJ,MA,Trenton,Boston
RUT,BOS,4831,-72.94960022,43.52939987,-71.00520325,42.36429977,VT,MA,Rutland,Boston
BDL,BOS,3582,-72.68319702149999,41.9388999939,-71.00520325,42.36429977,CT,MA,Hartford,Boston
CMH,BOS,49842,-82.891899,39.998001,-71.00520325,42.36429977,OH,MA,Columbus,Boston
MEM,BOS,45314,-89.97669982910156,35.04240036010742,-71.00520325,42.36429977,TN,MA,Memphis,Boston
OAK,BOS,61437,-122.221001,37.721298,-71.00520325,42.36429977,CA,MA,Oakland,Boston
MCO,BOS,395389,-81.30899810791016,28.429399490356445,-71.00520325,42.36429977,FL,MA,Orlando,Boston
HOU,BOS,36,-95.27890015,29.64539909,-71.00520325,42.36429977,TX,MA,Houston,Boston
SFB,BOS,364,-81.23750305175781,28.7775993347168,-71.00520325,42.36429977,FL,MA,Orlando,Boston
LAN,BOS,57,-84.58740234375,42.77870178222656,-71.00520325,42.36429977,MI,MA,Lansing,Boston
IAD,BOS,361546,-77.45580292,38.94449997,-71.00520325,42.36429977,DC,MA,Washington,Boston
DCA,BOS,459267,-77.037697,38.8521,-71.00520325,42.36429977,DC,MA,Washington,Boston
MCI,BOS,38096,-94.713898,39.2976,-71.00520325,42.36429977,MO,MA,Kansas City,Boston
BMG,BOS,122,-86.61669921875,39.14599990844727,-71.00520325,42.36429977,IN,MA,Bloomington,Boston
ILM,BOS,4,-77.90260314941406,34.27059936523437,-71.00520325,42.36429977,NC,MA,Wilmington,Boston
MKC,BOS,43,-94.5927963256836,39.12319946289063,-71.00520325,42.36429977,MO,MA,Kansas City,Boston
LAX,BOS,345569,-118.407997,33.942501,-71.00520325,42.36429977,CA,MA,Los Angeles,Boston
MSP,BOS,213159,-93.221802,44.882,-71.00520325,42.36429977,MN,MA,Minneapolis,Boston
MSY,BOS,16876,-90.25800323486328,29.99340057373047,-71.00520325,42.36429977,LA,MA,New Orleans,Boston
PBG,BOS,3707,-73.46810150146484,44.6509017944336,-71.00520325,42.36429977,NY,MA,Plattsburgh,Boston
RKS,CPR,2,-109.065001,41.5942,-106.463997,42.908001,WY,WY,Rock Springs,Casper
SLC,CPR,22584,-111.97799682617188,40.78839874267578,-106.463997,42.908001,UT,WY,Salt Lake City,Casper
MSP,CPR,9090,-93.221802,44.882,-106.463997,42.908001,MN,WY,Minneapolis,Casper
GTF,CPR,99,-111.3710022,47.48199844,-106.463997,42.908001,MT,WY,Great Falls,Casper
HLN,CPR,36,-111.98300170898438,46.6068000793457,-106.463997,42.908001,MT,WY,Helena,Casper
LAS,CPR,3015,-115.1520004,36.08010101,-106.463997,42.908001,NV,WY,Las Vegas,Casper
MDW,CPR,52,-87.752403,41.785999,-106.463997,42.908001,IL,WY,Chicago,Casper
ORD,CPR,3343,-87.9048,41.9786,-106.463997,42.908001,IL,WY,Chicago,Casper
ATL,CPR,165,-84.428101,33.6367,-106.463997,42.908001,GA,WY,Atlanta,Casper
GCC,CPR,8,-105.539001465,44.3488998413,-106.463997,42.908001,WY,WY,Gillette,Casper
CYS,CPR,94,-104.8119965,41.15570068,-106.463997,42.908001,WY,WY,Cheyenne,Casper
GEG,CPR,123,-117.53399658203124,47.61989974975586,-106.463997,42.908001,WA,WY,Spokane,Casper
BIS,CPR,1,-100.74600219726562,46.77270126342773,-106.463997,42.908001,ND,WY,Bismarck,Casper
ABQ,CVN,2400,-106.609001,35.040199,-103.07900238,34.4250984192,NM,NM,Albuquerque,Clovis
STL,DFW,405095,-90.370003,38.748697,-97.038002,32.896801,MO,TX,St. Louis,Dallas
CVG,DFW,132917,-84.6678009033,39.0488014221,-97.038002,32.896801,OH,TX,Cincinnati,Dallas
STL,DAL,245855,-90.370003,38.748697,-96.851799,32.847099,MO,TX,St. Louis,Dallas
EVV,DFW,12175,-87.53240203860001,38.0369987488,-97.038002,32.896801,IN,TX,Evansville,Dallas
